nominativo,regione,sesso,città_nascita,lat,lon,scheda,link,id
Giobatta Braida,Friuli Venezia Giulia,M,Palazzolo dello Stella (UD),45.79815,13.08381,"Nato a Palazzolo dello Stella (UD) l’11 gennaio 1926, sarto Nome di battaglia “Geri” Divisione Garibaldi, Sinistra Tagliamento Partigiano combattente Lo affianca nell’intervista la sorella Fides Braida, nata il 24 luglio 1929 L’intervista è stata realizzata nel gennaio 2026",https://www.noipartigiani.it/braida/,1154999413
Bianca Bergamaschi,Lombardia,F,S. Giacomo delle Segnate (MN),44.97232,11.03366,"Nata a Malcantone di San Giacomo delle Segnate (MN) nel 1930 Racconta la sua attività con la staffetta Ninfa Cappi in appoggio ai partigiani garibaldini La testimonianza è tratta da l film “Bianca, il racconto di vita di una donna, la storia di una comunità” realizzato da Barbara Bizzarri nel 2024",https://www.noipartigiani.it/bergamaschi_bianca/,1146995499
Anselmo Alberti,Toscana,M,Forno (MS),44.08115,10.2033,"Nato a Forno (MS) nel 1927, pastore È testimone della strage di Forno quando, il 13 giugno 1944, i nazisti e la X Mas uccisero 60 persone tra partigiani e civili. I due sopravvissuti alla fucilazione a cui fa riferimento nell’intervista sono Carlo Vivoli e Francio Del Sarto. Il tenente della Xª Mas Umberto Bertozzi, venne prima condannato e poi amnistiato perciò non andò mai in carcere. L’intervista è stata realizzata da Alberto Grossi, Ruggero Fruzzetti e Massimo Michelucci nel 1994",https://www.noipartigiani.it/alberti_anselmo/,
Domenico Fruzzetti,Toscana,M,Forno (MS),44.08115,10.2033,"Nato a Forno (MS) il 17 marzo 1924 Sap Montignosi Racconta la strage di Forno quando, il 13 giugno 1944, i nazisti e la X Mas uccisero 60 persone tra partigiani e civili. Domenico fu deportato in Germania e ritornò in Italia un anno dopo, il 13 giugno 1945 Il tenente della Xª Mas Umberto Bertozzi, venne prima condannato e poi amnistiato perciò non andò mai in carcere L’intervista è stata realizzata da Alberto Grossi, Ruggero Fruzzetti e Massimo Michelucci nel 1994",https://www.noipartigiani.it/fruzzetti/,1145586846
Franco Aliberti,Piemonte,M,Canelli (AT),44.72147,8.28681,"Nato a Canelli (CN) nel 1926, contadino Arrestato nella sua vigna con l’accusa di essere un partigiano, fu deportato nel lager di Bolzano e poi nel campo di sterminio di Flossenbürg , numero 43470 Qui racconta il viaggio verso la Germania e la liberazione avvenuta nell’aprile 1945 Il filmato è stato registrato nel 2012",https://www.noipartigiani.it/aliberti_franco/,1142105426
Ersilia Azzi,Lazio,F,Roma,41.89332,12.48293,"Nata a Roma il 12 febbraio 1923, studentessa Nome di battaglia “Cino” Staffetta 1ª Divisione Langhe Il padre, generale Arnaldo Azzi, l’8 settembre si trovava in Albania e rifiutò di arrendersi ai tedeschi. Con la sua divisione passò nelle fila della Resistenza albanese e nel dopoguerra fece parte dell’Assemblea Costituente. La testimonianza di Ersilia è contenuta nel libro “Innamorate della libertà. Donne e Resistenza” di Erika Peirano",https://www.noipartigiani.it/azzi_ersilia/,1145903115
Olga Guerra,Emilia Romagna,F,Sarsina (FC),43.9189,12.14382,"Nata a Pieve di Rivoschio, Sarsina (FC) il 14 luglio 1926 Staffetta per l’8ª Brigata Garibaldi Nell’intervista fa riferimento a Salvatore “Giulio” Auria, classe 1916, ucciso in combattimento il 21 aprile 1944, Medaglia d’Argento alla memoria. Ilario “Pietro” Tabarri era il comandante dell’8ª Brigata che Olga sposerà dopo la guerra, Andrea Gualdi il partigiano della formatione Corbari con cui Olga passerà gran parte della sua vita. L’intervista è stata realizzata nel febbraio 2008",https://www.noipartigiani.it/guerra_olga/,1145905698
Don Aldo Benevelli,Piemonte,M,Monforte d'Alba (CN),44.58284,7.96918,"Nato a Monforte d’Alba (CN) il 29 dicembre 1923, seminarista 3ª Divisione Alpi, Servizio X struttura di spionaggio Fu ordinato sacerdote nel 1948 Sulla sua esperienza Giovanni Cerutti e Claudio Mondino hanno scritto il libro “Aldo Benevelli. Partigiano e prete” L’intervista è stata realizzata nel 2012",Non trovato nel Foglio3,#N/A
Gina Saracco,Piemonte,F,San Secondo di Pinerolo (TO),44.86659,7.29953,"Nata a San Secondo di Pinerolo (TO) il 4 ottobre 1926 , studentessa Partigiana combattente Vª Divisione Giustizia e Libertà L’intervista è stata realizzata nel 2016",https://www.noipartigiani.it/saracco_gina/,1143065312
Riccardo Jori,Liguria,M,Genova,44.40726,8.93386,"Nato a Genova nel 1931 Racconta dello zio Germano, classe 1904, perseguitato, confinato, poi capo dei Gap genovesi. Fu ucciso dalle Brigate Nere il 13 luglio 1944. È Medaglia d’Argento alla memoria. Un altro zio, Orazio fratello di Germano, fu incarcerato benché molto malato di tubercolosi e morì. L’intervista è stata realizzata nel novembre 2012",https://www.noipartigiani.it/jori/,1145880418
Giuseppe Beretta,Liguria,M,S. Margherita Ligure (GE),44.33145,9.21319,"Nato a San Lorenzo della Costa, Santa Margherita Ligure (GE) il 31 dicembre 1928 Patriota Brigata “Berto” Nell’intervista fa riferimento ai compagni con cui andò in montagna, Andrea “Urano” Solari, 1925, e Luigi “Caino” Cabona, 1926 e a due partigiani caduti Simone Stefani ucciso il 4 agosto 1944 e Silvio “Berto” Solimano , morto il 27 agosto 1944 Silvio Solimano è Medaglia d’Oro alla memoria L’intervista è stata realizzata da Marina Marchetti nel 2004",https://www.noipartigiani.it/beretta/,1141426313
Emilio Franzone,Liguria,M,Pontedecimo (GE),44.49887,8.90562,"Nato a Pontedecimo, Genova, il 20 luglio 1926, operaio Brigata Sap “Rissotto” La Croce Verde, pubblica assistenza sanitaria, era il punto di ritrovo degli antifascisti e dei giovani vicini alla Resistenza di Pontedecimo Nell’intervista fa riferimento alla strage della Benedicta dove, tra il 6 e l’11 aprile 1944, fuorno uccisi 147 partigiani L’intervista è stata realizzata nell’ottobre 2010",https://www.noipartigiani.it/franzone/,1139987246
Emilio Roncagliolo,Liguria,M,S. Margherita Ligure (GE),44.33145,9.21319,"Nato a Santa Margherita Ligure (GE) l’8 agosto 1924 Nome di battaglia “Lesta” Vicecomandante di brigata Divisione “Cichero” comandata da Aldo Gastaldi “Bisagno”, Battaglione “Berto” Medaglia d’argento al Valor Militare Nell’intervista è citato il Battaglione Vestone della divisione alpina Monterosa che Bisagno, nel novembre 1944, convinse a passare in massa nelle file partigiane. L’intervista è stata realizzata dall’associazione “Radici con le ali” nel 2000",https://www.noipartigiani.it/roncagliolo/,1137700139
Elia Somenzi,Lombardia,M,Treviglio (BG),45.52044,9.59374,"Nato a Treviglio (BG) nel novembre 1928 Militò nella Brigata Treviglio dove andò con alcuni anarchici conosciuti in carcere Con il padre Ermanno, ispettore nelle filande, si adoperò per nascondere e far espatriare in Svizzera i bambini ebrei che venivano nascosti nei camion che trasportavano i fiocchi di seta. In questa attività clandestina era attivo anche Don Eugenio Bussa, riconosciuto Giusto tra le nazioni L’intervista è stata realizzata nel gennaio 2017",https://www.noipartigiani.it/somenzi/,1138113272
Anna Maria Polo,Piemonte,F,Alpignano (TO),45.09459,7.52445,"Nato ad Alpignano (TO) il 6 luglio 1924, impiegata Nome di battaglia “Mara” Sottotenente 41ª Brigata Garibaldi, 17ª Brigata Garibaldi Nell’intervista fa riferimento al fratello Francesco, partigiano nella 43ª Divione “Sergio De Vitis”, Brigata “Ferruccio Gallo”. Cita anche Celeste Negarville, membro della giunta del Comitato di Liberazione Nazionale, nel dopoguerra sindaco di Torino e direttore de “L’Unità”",Non trovato nel Foglio3,#N/A
Pasqualino Pesce,Liguria,M,Sassello (SV),44.47953,8.49015,"Nata a Sassello (SV) nel 1933, studente Racconta l’omicidio di Don Domenico Minetti, sacerdote della Maddalena a Sassello, ucciso dai fascisti della San Marco il 21 ottobre 1944 con la falsa accusa di dare ospitalità ai partigiani L’intervista è tratta da “Un bindolo”, videoracconto realizzato da Alberto Chiossone nel 2021",https://www.noipartigiani.it/pesce_pasqualino/,1139386410
Giacomo Pesce,Piemonte,M,Morbello (AL),44.60641,8.51139,"Nato a Morbello (AL) l’8 maggio 1922, operaio Nome di battaglia “Sandro” 1ª Brigata Giustizia e Libertà, Divisione Garibaldi “Viganò”, comandante del distaccamento “Quaranta” L’intervista è stata realizzata nel luglio 2011",https://www.noipartigiani.it/pesce_giacomo/,1139241503
Alessandro Raviolo,Piemonte,M,Serravalle Scrivia (AL),44.72251,8.85966,"Nato a Serravalle Scrivia (AL) il 22 giugno 1925, ferroviere 16 ª Divisione Viganò, Brigata “Vittorio” L’intervista è stata realizzata nell’ottobre 2011",https://www.noipartigiani.it/raviolo/,1139238077
Elisa Rubinelli,Piemonte,F,Chiavazza (BI),45.56545,8.07338,"Nata a Chiavazza (BI) il 19 novembre 1931 Benché bambina, fece parte di un gruppo di ragazze che lavoravano come stafette e supporto ai partigiani Nell’intervista fa riferimento all’eccidio dell’21 febbraio 1944 in cui furono uccisi sette partigiani tra cui Palmino Camerlo, classe 1925, fratello di Mauro che sarà partigiano nella 50ª Brigata Garibaldi e che sposerà Elisa nel 1949 L’intervista è stata realizzata da Giulia Arduino nell’ottobre 2025",https://www.noipartigiani.it/rubinelli/,1138026600
Catterina Arezzo,Piemonte,F,Cavour (TO),44.78652,7.37503,Nata a Cavour (TO) il 28 giugno 1922 Nome di battaglia “Rina” 105ª Brigata Garibaldi Staffetta L’intervista è stata realizzata nel 2005,https://www.noipartigiani.it/arezzo_catterina/,1133910857
Marisa Diena,Piemonte,F,Torino,45.06775,7.68249,"Nata a Torino il 29 settembre 1916, studentessa Nome di battaglia “Mara” 4ª Brigata Garibaldi Servizio informazioni, Gruppi di Difesa della donna Racconta la morte del fratello Franco “Ferrero”, ucciso in azione il 29 settembre 1944 Sulla sua esperienza, Marisa Diena ha scritto i libri ” Guerriglia e autogoverno. Brigate Garibaldi nel Piemonte occidentale 1943-’45” e “Un intenso impegno civile: ricordi autobiografici del Novecento” L’intervista è stata realizzata da Francesco Perrone nel marzo 2003",https://www.noipartigiani.it/diena_marisa/,1134549318
Maria Goretti,Lombardia,F,Marcallo Casone (MI),45.48512,8.87978,"Nata a Marcallo Casone (MI) il 26 giugno 1929 Ha svolto attività di supporto ai partigiani nel quartiere di Baggio, a Milano. L’intervista è stata realizzata da Maurizio Pratt nel febbraio 2022",https://www.noipartigiani.it/goretti_maria/,1133552822
Alberto Pagos,Liguria,M,Campomorone (GE),44.50742,8.89139,"Nato a Isoverde, Campomorone (GE) il 14 maggio 1925, operaio Nome di battaglia “Fulmine” 219ª Brigata Sap “Longhi” che operava nella fabbrica Ansaldo Fossati di Genova L’intervista è stata realizzata nel novembre 2006",https://www.noipartigiani.it/pagos_1/,1130265633
Antonio Parodi,Piemonte,M,Montabone (AT),44.69974,8.39121,"Nato a Montabone (AT) nel 1924, contadino IMI, Internato Militare Italiano Granatiere a Roma, l’8 settembre cerca di tornare a casa , ma viene catturato sul treno e deportato in Germania L’intervista è stata realizzata nell’ottobre 2025",https://www.noipartigiani.it/parodi/,1131648376
Ezio Rostan,Piemonte,M,Prali (TO),44.88879,7.04944,"Nato a Prali (TO) il 29 aprile 1927 Brigata Val Germanasca, Vª Divisione Giustizia e Libertà Ha svolto attività di staffetta e supporto alle formazioni in cui militava il cugino Remo Ferrier, 25 anni, ucciso dai tedeschi l’11 febbario 1945 L’intervista è stata realizzata nell’ottobre 2008",https://www.noipartigiani.it/rostan/,1130927986
Vittorio Antonini,Toscana,M,Marradi (FI),44.04753,11.61466,Nato a Marradi (Fi) il 12 settembre 1925 Nome di battaglia “Dario” 36ª Brigata Bianconcini,https://www.noipartigiani.it/antonini/,1130924691
Loris Vegetti,Lombardia,M,Milano,45.46419,9.18963,"Nato a Milano il 18 settembre 1925, studente Nome di battaglia “Vega” Brigata Stella Rossa Sergente Maggiore Sulla sua esperienza ha scritto il libro “Il mio nome era Vega” L’intervista è stata realizzata nel 2012 per il cortometraggio “43-12 Riprendere la Resistenza”",https://www.noipartigiani.it/vegetti/,1130916493
Franco Pasquet,Piemonte,M,Torre Pellice (TO),44.8211,7.22416,"Nato a Torre Pellice (TO) il 4 settembre 1925, studente Nome di battaglia “Francis” Partigiano Combattente V ª Divisione Giustizia e Libertà, Brigata Val Pellice. Brigata Dino Buffa Nell’intervista fa riferimento a Matteo Gay “Mathieu”, classe 1879, deputato socialista che partecipò alla Resistenza",https://www.noipartigiani.it/pasquet/,1130881342
Michele Patrone,Liguria,M,Rapallo (GE),44.35122,9.23,"Nato a Rapallo (GE) il 29 giugno 1924 Nome di battaglia “Falco” Distaccamento “Mandorli” Nell’intervista fa riferimento al Vestone, battaglione di alpini passato in massa alla Resistenza il 4 novembre 1944 Cita anche il partigiano Ezio Lucarno “Cialacche”, nato nel 1926 morto il 28 novembre 1944, Medaglia d’oro alla memoria L’intervista è stata realizzata nel 2004 da Marina Marchetti",https://www.noipartigiani.it/patrone/,1130880979
Eginia Manfé,Veneto,F,Caneva (PN)*,45.97232,12.44967,"Nata a Sarone frazione di Caneva (PN) il 16 giugno 1925 Staffetta per la formazione “Nino Nanetti” Catturata dai tedeschi e minacciata di fucilazione, si salvò grazie a uno scambio organizzato dai partigiani L’intervista è stata realizzata nel 2015",https://www.noipartigiani.it/manfe/,1130880822
Giuseppe Rinaldi,Lombardia,M,Grosio (SO),46.33161,10.27506,"Nato a Grosio (SO) il 2 novembre 1923, operaio Nome di battaglia “Ivan” Divisione Alpina Valtellina “Giustizia e Libertà” Brigata “Mortirolo”, Squadra d’assalto “La Tredici”",https://www.noipartigiani.it/rinaldi/,1130266436
Silvio Fontanelli,Liguria,M,Rosario (ARG),-32.95113,-60.66633,"Nato a Rosario di Santa Fé (Argentina) il 21 gennaio 1924, studente Nome di battaglia “Nutti” Banda Nicola, Divisione Cichero, Brigata Matteotti Val Bisagno, Formazione di studenti “Curtatone e Montanara” Nell’intervista fa riferimento a Giuseppe Salvarezza “Pinan”, classe 1922, ucciso in combattimento il 15 dicembre 1944. Il suo nome venne dato alla formazione diventata “Pinan Cichero” e ha ricevuto la Medaglia d’oro alla Memoria L’intervista è stata realizzata da Marina Marchetti nel 2004",https://www.noipartigiani.it/fontanelli-2/,1129521920
Carlo Saracco,Piemonte,M,Canelli (AT)*,44.72147,8.28681,"Nato a Canelli (CN) il 5 dicembre 1923, muratore Dopo l’8 settembre 1943 fu deportato a Bochum, un sottocampo del lager di Buchenvald dove ha trascorso 22 mesi L’intervista è stata realizzata da Gianna Menabreaz e Federica Parone",https://www.noipartigiani.it/saracco_carlo/,1123601128
Giuseppe Massari,Toscana,M,Pontremoli (MS),44.37761,9.88241,"Nato a Pontremoli (MS) il 14 marzo 1926, contadino Nome di battaglia “Gigio” Battaglione “Guido Picelli”, Formazione Beretta Racconta la vicenda di Dante Castellucci “Facio”, partigiano calabrese della Banda Cervi sfuggito alla cattura con uno stratagemma e riparato in Lunigiana dove diventa comandante di una formazione. Ha combattuto anche la celebre battaglia del Lago Santo dove nove partigiani sorpresi in una baita resistettero per venti ore a decine di nazifascisti salvandosi tutti. Facio verrà ucciso il 22 luglio 1944 da altri partigiani che lo accusano di furto. Massari fa riferimento ad Antonio Cabrelli “Salvatore” che con Facio aveva...",https://www.noipartigiani.it/massari/,1123232655
Livio Nobili,Emilia Romagna,M,Migliarino (FE),44.77098,11.93297,"Nato a Migliarino di Ferrara nel 1932 Racconta del padre Federico Raul, nato a Porto Maggiore di Ferrara l’11 dicembre 1902. Trasferitosi con la famiglia a Santa Margherita Ligure per sfuggire alle persecuzioni del fascismo, divenne capo del Comitato di Liberazione locale. Arrestato con i suoi compagni il Primo marzo 1944, fu portato al comando tedesco dove venne atrocemente seviziato. Il suo corpo non fu mai ritrovato, probabilmente bruciato nella caldaia dell’hotel Miramare che ospitava i nazisti. L’intervista è stata realizzata da Marina Marchetti nel 2004",https://www.noipartigiani.it/nobili_livio/,1125569702
Giacomo Gastaldi,Liguria,M,Genova,44.40726,8.93386,"Nato a Genova nel 1932 Racconta i suoi ricordi del fratello Aldo “Bisagno” Gastaldi, classe 1921, comandante della Divisione Cichero, la figura più nota della Resistenza Ligure. Bisagno morì in un incidente stradale sul Lago di Garda il 21 maggio 1945. È Medaglia d’Oro alla Memoria. Nell’intervista Giacomo Gastaldi fa riferimento a Giovanni Serbandini “Bini”, esponente del Partito Comunista che contattò Aldo Gastaldi benché questi non appartenesse a nessun partito e fosse un convinto cattolico: nel 2019 la curia genovese ha iniziato la sua causa di beatificazione. L’intervista è stata realizzata da Marina Marchetti nel 2004",https://www.noipartigiani.it/gastaldi/,1125793998
Luigi Campora,Piemonte,M,Ovada (AL),44.6369,8.64415,"Nato a Ovada (AL) il 20 aprile 1925 Nome di battaglia “Ciapaiev” Brigata Olivieri Nell’intervista fa riferimento a Grca Cupic “Boro”, prigioniero di guerra jugoslavo evaso dalle carceri di Fossano (CN) che si unì ai partigiani ovadesi. Il nome di battaglia che dà a Campora fa probabilmente riferimento a Čapaev eroe rivoluzionario di un film sovietico uscito nel 1934. L’intervista è stata realizzata nel 2016",https://www.noipartigiani.it/campora/,1121147887
Romolo Stefani,Liguria,M,S. Stefano d'Aveto (GE),44.54921,9.4507,"Nato a Santo Stefano d’Aveto (GE) il 17 gennaio 1926 Nome di battaglia “Diego” Brigata Berto, Distaccamento Lago Il fratello Simone, classe 1922, partigiano nella Brigata Oreste (poi divenuta Divisione Pinan Cichero) fu catturato e ucciso a Chiavari dopo 10 giorni di sevizie il 4 agosto 1944 Nell’intervista fa riferimento all’incendio di Cichero avvenuto il 16 luglio 1944, quando i nazifascisti uccisero 7 partigiani e diedero fuoco al paese L’intervista è stata realizzata da Marina Marchetti nel 2004",https://www.noipartigiani.it/stefani_ok/,1121478581
Rocco Bruno,Piemonte,M,Fossano (CN),44.5518,7.72304,"Rocco Bruno Nato a Fossano (CN) il 5 agosto 1925, contadino Nome di battaglia “Reno” Terza Divisione Alpi, comandata da Piero Cosa, Brigata Fossano nel 1945 Benemerito L’intervista è stata realizzata da Giulia Arduino nel giugno del 2025",https://www.noipartigiani.it/rocco_bruno/,1122930369
Elio Storta,Piemonte,M,Torino,45.06775,7.68249,"Elio Storta Nato a Torino il 16 gennaio 1924, impiegato Nome di battaglia “Eli” 76ª Brigata Garibaldi, vice comandante di distaccamento L’intervista è stata realizzata da Giulia Arduino nel giugno 2025",https://www.noipartigiani.it/storta_elio/,1122168627
Santina Tribolo,Piemonte,F,Barge (CN),44.72621,7.3223,"Santina Tribolo Nata a Barge (CN) il primo settembre 1934 Racconta dell’uccisione del padre Marco da parte dei tedeschi il 21 dicembre 1943, dell’incendio del paese l’1 luglio 1944, dei due fratelli partigiani con cui teneva i collegamenti L’intervista è stata realizzata nel 2025 da Dario Crivello e Giovanni Polesello con la collaborazione di Paola Lasala",https://www.noipartigiani.it/tribolo/,1121583653
Carlo Ceriani,Lombardia,M,Thiene (VI),45.70732,11.47779,"Carlo Ceriani Nato a Thiene (VI) l’11 giugno 1925, tornitore Ha svolto la sua attività resistente nella 115ª Brigata Garibaldi alla Motomeccanica di Milano comandata da Siro Mascherpa e Antonio Redetti. L’intervista è stata realizzata nel giugno 2025",https://www.noipartigiani.it/ceriani_/,1097818088
Amedeo Borghesi,Piemonte,M,Gravellona Toce (VB),45.92882,8.43285,"Amedeo Borghesi Nato a Gravellona Toce (VB) il 30 aprile 1928, operaio Nome di battaglia “Lepre” Seconda Divisione Redi comandata da Aldo Aniasi “Iso” Sulla sua esperienza ha scritto il libro “Memorie e ricordi di nonno Amedeo” L’intervista è stata realizzata nel giugno 2025",https://www.noipartigiani.it/borghesi/,1095646967
Aldo Giacon,Veneto,M,Grumolo d. Abbadesse (VI),45.50974,11.66631,"Aldo Giacon Nato a Grumolo delle Abbadesse (VI) il 14 settembre 1924, operaio meccanico 11° Reggimento Bersaglieri IMI Internato Militare Italiano Fu catturato nel settembre del 1943 e deportato a Torun, in Polonia L’intervista è stata realizzata nel gennaio 2025 da Luca Fregona",https://www.noipartigiani.it/giacon/,1090123885
Lea Gariazzo,Piemonte,F,Ponderano (BI),45.52988,8.05389,"Lea Gariazzo Nata a Ponderano (BI) il 29 marzo 1924, operaia Nome di battaglia “Katia” Ha svolto il ruolo di staffetta e distribuzione di stampa clandestina Nelle riunioni clandestine ha conosciuto il futuro marito il partigiano Sergio Carta “Zambo”, comandante di distaccamento della 50ª Brigata Garibaldi. L’intervista è stata realizzata da Giulia Arduino nel febbraio 2025",https://www.noipartigiani.it/gariazzo/,1090123467
Vittore Nosari,Veneto,M,Isola della Scala (VR),45.26876,11.00977,"Vittore Nosari Nato a Isola della Scala (VR) l’8 marzo 1928 Nome di battaglia “Vito” 19ª Brigata “Eusebio Giambone”, 2ª divisione Garibaldi L’intervista è stata realizzata nel febbraio 2021",https://www.noipartigiani.it/nosari/,1090128836
Giovanni Capello,Piemonte,M,Monteu Roero (CN),44.79159,7.93774,Giovanni Capello Nato a Monteu Roero (CN) il 6 gennaio 1935 Racconta il tempo di guerra e l’aiuto che la famiglia dava ai partigiani di un distaccamento garibaldino. L’intervista è stata realizzata nel maggio 2025,https://www.noipartigiani.it/capello/,1086838395
Mario Parmigiani,Piemonte,M,Ornavasso (VB),45.97018,8.41113,"Mario Parmigiani Nato a Ornavasso (VB) il 22 giugno 1925, operaio Divisione autonoma Valtoce comandata da Alfredo Di Dio “Marco” Squadra guastatori L’intervista è stata realizzata da Paolo De Toni nell’ottobre 2016",https://www.noipartigiani.it/parmigiani/,1045071003
Vittorio Tonarelli,Toscana,M,Forno (MS),44.08115,10.2033,"Don Vittorio Tonarelli Parroco di Forno (MS) il 13 giugno 1944 quando Xª Mas e tedeschi uccisero 60 civili Nei giorni precedenti i partigiani della brigata “Luigi Mulargia”, ritenendo imminente lo sbarco degli Alleati, avevano occupato il paese. Il 13 giugno i nazifascisti scatenarono la rappresaglia uccidendo il comandate Marcello Garosi “Tito” , Medaglia d’oro alla Memoria, e altri sette partigiani. Venne ucciso anche il maresciallo dei carabinieri Ciro Siciliano, Medaglia d’oro al merito civile, che aveva cercato di intercedere per la popolazione. Si accanirono poi sui civili che Don Vittorio cercò di aiutare, salvando anche dei bambini rinchiusi in...",https://www.noipartigiani.it/tonarelli/,1077525557
Ovis Ferrari,Emilia Romagna,M,Carpi (MO),44.78287,10.88457,"Ovis Ferrari Nato a Carpi (MO) il 9 settembre 1924, macellaio Nome di battaglia “Nembo” Comandante di distaccamento 2ª Brigata Sambolino, Divisione “Gin Bevilacqua” che operava nel savonese Nell’intervista fa riferimento al fratello Irios, ucciso a Carpi il 22 aprile 1945 L’intervista è stata realizzata da Pino Sperandio",https://www.noipartigiani.it/ferrari_ovis/,1077532725
Ottavia Fenoglio,Piemonte,F,Bagnolo Piemonte (CN),44.76014,7.31175,"Ottavia (Lina) Fenoglio Nata a Bagnolo Piemonte (CN) l’8 agosto 1914, commessa Staffetta Ha svolto la sua attività per la 4ª Brigata Garibaldi e la 105ª Brigata Garibaldi di cui faceva parte il futuro marito Pietro Menudo “Nettuno” L’intervista è stata realizzata da Francesco Perrone nell’ottobre del 2005",https://www.noipartigiani.it/fenoglio-ottavia/,1076709866
Felice Valtorta,Lombardia,M,Milano,45.46419,9.18963,"Felice Valtorta Nato a Milano l’11 novembre 1926 Nome di battaglia “Fermo” 112ª Brigata Garibaldi Sap comandata dal fratello Angelo Il 26 aprile 1945, durante l’insurrezione, Angelo fu gravemente ferito in uno scontro con i tedeschi in cui cadde il partigiano Ernesto “Gino” Visconti L’intervista è stata realizzata nel 2012 per il documentario “43-12 Riprendere la Resistenza”",https://www.noipartigiani.it/valtorta/,1077525114
Dante Raina,Lombardia,M,Zibido S. Giacomo (MI),45.36224,9.11794,Dante Raina Nato a Zibido San Giacomo (MI) il 23 settembre 1921 18ª Brigata del Popolo Sergente Ha operato soprattutto a Milano e in parte in Val Taleggio L’intervista è stata realizzata da Maurizio Pratt nel 2004,https://www.noipartigiani.it/raina-dante/,1077524690
Franco Ceste,Piemonte,M,Canelli (AT)*,44.72147,8.28681,Franco Ceste Nato a Canelli (CN) il 24 novembre 1927 Benché non facesse parte della Resistenza fu catturato dalla X MAS e portato nel carcere di Torino e a San Vittore a Milano Fu poi deportato in Germania in un sottocampo di Mauthausen,https://www.noipartigiani.it/ceste/,1077524509
Guerrino Gotti,Emilia Romagna,M,Anzola dell'Emilia (BO),44.54714,11.19655,"Guerrino Gotti Nato ad Anzola dell’Emilia (BO) il 3 marzo 1927, operaio meccanico 63ª Brigata Bolero Sergente L’intervista è stata realizzata nel marzo 2002 da Antonella Restelli",https://www.noipartigiani.it/gotti/,1075955593
Vincenzo Modica,Sicilia,M,Mazara del Vallo (TP),37.65215,12.58804,"Vicenzo Modica Nato ad Mazara del Vallo (TP) il 18 ottobre 1919, agricoltore Nome di battaglia “Petralia” Comandante 4ª Brigata Cuneo, comandante della 1ª Divisione “Leo Lafranco” Ufficiale di cavalleria, dopo l’8 settembre con il commilitone Pompeo Colajanni, il comandante “Barbato”, diede vita nel Monferrato alle prime formazioni partigiane. Una settimana prima della Liberazione, guidò la presa della città di Chieri. L’intervista è stata realizzata nel dicembre 2002 da Francesco Perrone",https://www.noipartigiani.it/modica_2/,1075955190
Arrigo Diodati,Liguria,M,La Spezia,44.10427,9.82319,"Arrigo Diodati Nato a La Spezia il 25 maggio 1926 Nome di battaglia “Franco” Fronte della gioventù, Vice commissario Sap di Genova, Brigata Pio Divisione Mingo È l’unico sopravvissuto all’eccidio di Cravasco, nell’entroterra di Genova, dove il 23 marzo 1945 furono fucilati dai nazifascisti 17 detenuti politici. Diodati, ferito e creduto morto, riuscì invece a salvarsi. Nel 1957 ha fondato l’Arci di cui è stato poi presidente onorario L’intervista è tratta dal documentario “Filo rosso. Arrigo Diodati, la Resistenza, l’Arci” di Susanna Guidi e Giovanni De Rose",https://www.noipartigiani.it/diodati/,1076454943
Bruno Pasquali,Piemonte,M,Torino,45.06775,7.68249,"Bruno Pasquali Nato a Torino il 24 luglio 1926, disegnatore Nome di battaglia “Nullo” Formazioni autonome, 19ª Brigata Garibaldi, 9ª Brigata Garibaldi",https://www.noipartigiani.it/pasquali/,1076710134
Giovanni Pesce,Piemonte,M,Visone (AL),44.66223,8.5222,"Giovanni Pesce Nato a Visone (AL) il 22 febbraio 1918, minatore Nome di battaglia “Visone” Combattente garibaldino nella Guerra di Spagna Al confino a Ventotene Comandante dei Gap prima a Torino e poi della 3ª Gap a Milano Medaglia d’oro al Valor Militare Nel dopoguerra è stato presidente dell’ Anpi e sulla sua storia ha scritto i libri “Senza tregua. La guerra dei Gap”; “Quando cessarono gli spari”; “Soldati senza uniforme” Anche la testimonianza della moglie Onorina Brambilla “Sandra”, Gap, con lui nell’intervista, è conservata nel Memoriale L’intervista è stata realizzata nel marzo 2006",https://www.noipartigiani.it/pesce/,1076910824
Onorina Brambilla,Lombardia,F,Milano,45.46419,9.18963,"Onorina Brambilla Nata a Milano il 27 agosto 1923 Nome di battaglia “Sandra” Tenente della brigata 3ª Gap Deportata al lager di Bolzano Anche la testimonianza del marito Giovanni Pesce, “Visone”, con lei nell’intervista è conservata nel Memoriale L’intervista è stata realizzata nel marzo 2006",https://www.noipartigiani.it/brambilla/,1076910607
Luigi Pestalozza,Lombardia,M,Milano,45.46419,9.18963,"Luigi Pestalozza Nato a Milano il 20 febbraio 1928, studente Nome di battaglia “Lupi” Brigata Rosselli, Giustizia e Libertà, comandata da Bruno Trentin Nel dopoguerra è diventato critico e musicologo di fama internazionale L’intervista è stata realizzata da Maurizio Pratt nel dicembre 2015",https://www.noipartigiani.it/pestalozza/,1075955004
Vittorio Canali,Emilia Romagna,M,Salsomaggiore (PR),44.81561,9.97906,"Vittorio Canali Nato a Salsomaggiore (PR) nel 1925 Nome di battaglia “Toio” 51ª Brigata Garibaldi “Caio”, 31ª Brigata Garibaldi “Forni” L’intervista è stata realizzata nel 2010 da Francesca Maria Ampollini",https://www.noipartigiani.it/canali/,1076454793
Mario Barbieri,Emilia Romagna,M,Salsomaggiore (PR),44.81561,9.97906,"Mario Barbieri Nato a Salsomaggiore (PR) il 27 dicembre 1924 Nome di battaglia “Tarquinio” Vice comandante Distaccamento “Flli Vignali”, 31ª Brigata Garibaldi “Forni” Archivi Anpi Salsomaggiore – L’intervista è stata realizzata da Francesca Maria Ampollini nel 2010",https://www.noipartigiani.it/barbieri-2/,1076454594
Renato Andioni,Emilia Romagna,M,Salsomaggiore (PR),44.81561,9.97906,Renato Andioni Nato a Salsomaggiore (PR) il 18 dicembre 1927 Nome di battaglia “Leo” 31ª Brigata Garibaldi “Forni” L’intervista è stata realizzata da Francesca Maria Ampollini nel 2010,https://www.noipartigiani.it/andioni/,1076454476
Dina Braglia,Emilia Romagna,F,Bagno (RE),44.66635,10.74235,"Dina Braglia Nata a Bagno, Reggio Emilia il 18 dicembre 1925 Nome di battaglia “Vetra” Staffetta 76ª Brigata Sap L’intervista è stata realizzata nel marzo 2025",https://www.noipartigiani.it/braglia/,1076454365
Amedeo Pecci,Marche,M,Ponte Grimano (PU),43.8647,12.38318,Amedeo Pecci Nato a Ponte Grimano (PU) il 30 gennaio 1928 Nome di battaglia “Walter” Formazione 219 Longhi L’intervista è stata realizzata dall’associazione “Radici con le ali”,https://www.noipartigiani.it/pecci_amedeo/,1075969861
Ermanno Gorrieri,Emilia Romagna,M,Magreta (MO),44.60416,10.81498,"Ermanno Gorrieri Nato a Magreta (MO) il 26 novembre 1920, studente Nome di battaglia “Claudio” Comandante della “Brigata Italia” con cui partecipò alla creazione della Repubblica partigiana di Montefiorino, nata nel giugno del 1944 e che durò 45 giorni Nel dopoguerra Gorrieri fu deputato e ministro e contribuì a fondare il sindacato Cisl Sull ‘esperienza partigiana ha scritto il libro “La repubblica di Montefiorino. Per una storia della Resistenza in Emilia” e con Giulia Bondi ” Ritorno a Montefiorino. Dalla Resistenza sull’Appenino alla violenza del dopoguerra L’intervista è stata realizzata nel 1993",Non trovato nel Foglio3,#N/A
Armando Groppi,Emilia Romagna,M,Alseno (PC),44.89886,9.96541,"Armando Groppi Nato ad Alseno (PC) il 16 dicembre 1921, manovale Nome di battaglia “Cincillà” Distaccamento “Bacco”, Distaccamento “Bottoni”, Distaccamento “Lindori Peracchi”, 31ª Brigata Garibaldi “Forni” L’intervista è stata realizzata da Francesca Maria Ampoliini nel 2010",https://www.noipartigiani.it/groppi/,1075690976
Arnaldo Favalesi,Emilia Romagna,M,Salsomaggiore (PR),44.81561,9.97906,"Arnaldo Favalesi Nato a Salsomaggiore (PR) il 10 maggio 1925 Nome di battaglia “Nani” Distaccamento “Germoni” , 31ª Brigata Garibaldi “Forni” L’intervista è stata realizzata nel 2021 da Patrizia Mainardi",https://www.noipartigiani.it/favalesi/,1076022277
Domenico Borgna,Piemonte,M,Cavour (TO),44.78652,7.37503,"Domenico Borgna Nato a Cavour (TO) il 4 ottobre 1920, studente Nome di battaglia “Nico” Comandante di distaccamento 4ª Brigata Garibaldi L’intervista è stata realizzata da Francesco Perrone nel novembre 2009",https://www.noipartigiani.it/borgna_domenico/,1074657778
Bianca Maria Colombo,Lombardia,F,Milano,45.46419,9.18963,"Bianca Maria Colombo Nata a Milano il 28 febbraio 1930 Ha collaborato con il padre Domenico che, da podestà di alcuni paesini del Verbano, faceva il doppio gioco aiutando i partigiani della Brigata Valtoce L’intervista è stata realizzata da Paolo De Toni",Non trovato nel Foglio3,#N/A
Adolfo Croccolo,Liguria,M,La Spezia,44.10427,9.82319,"Adolfo Aharon Croccolo Nato a La Spezia il 18 maggio 1921, tecnico in un’azienda elettrica Il padre Ugo svolge attività clandestina in collegamento con il CLN, Adolfo arrestato nel marzo 1945 fugge con uno stratagemma Dopo la guerra partecipa all’Operazione Exodus che, con le navi Fede e Fenice, porterà al rimpatrio di 1400 ebrei in Palestina L’intervista è stata realizzata nel settembre 2008",https://www.noipartigiani.it/croccolo-k/,1075565474
Cesare Buldrini,Emilia Romagna,M,Anzola dell'Emilia (BO),44.54714,11.19655,"Cesare Buldrini Nato ad Anzola dell’Emilia il 26 febbraio 1923 Nome di battaglia “Buti” 7ª Gap Gianni Catturato per la delazione di una spia, fu deportato a Mauthausen L’intervista è stata realizzata nel 2002",https://www.noipartigiani.it/buldrini-copia-01/,1075565327
Fernando Musolesi,Emilia Romagna,M,Monzuno (BO),44.27962,11.26788,"Fernando Musolesi Nato a Monzuno (BO) l’8 agosto 1926 Ha svolto attività di sostegno alla brigata “Stella Rossa” comandata da Mario Musolesi “Lupo” L’8 agosto 1944, il fratello Giovanni, partigiano, dormiva nella casa di famiglia. Circondata per una spiata dei fascisti locali, fu minata e fatta saltare in aria. Fernando viene portato con i fratelli e le sorelle in prigione. I fratelli Gino, Giovanni, Pietro vengono fucilati. Un altro fratello partigiano, Ubaldo venne catturato e impiccato il 10 ottobre 1944. le sorelle, deportate, si sono salvate L’intervista è stata realizzata da Vittoria Comellini nel maggio 2009",https://www.noipartigiani.it/musolesi/,1058506556
Bruno Veniani,Piemonte,M,Intra (VB),45.93755,8.57211,"Bruno Veniani Nato a Intra (VB) nel 1934 Qui racconta la storia del nonno Maurizio Mascoli ucciso dai fascisti nel 1922, del fratello Maurizio Veniani, partigiano nella Brigata Valgrande. Fa anche riferimento all’eccidio di Fondotoce dove, il 20 giugno 1944, furono fucilati 43 partigiani. L’intervista è stata realizzata nel gennaio 2017 da Paolo De Toni",https://www.noipartigiani.it/veniani/,1070266463
Giacomo Scarafiotti,Piemonte,M,Torino,45.06775,7.68249,Giacomo Scarafiotti Nato a Torino il 27 agosto 1923 Nome di battaglia “Tamagno” Capo Squadra 105ª Brigata Garibaldi L’intervista è stata realizzata da Francesco Perrone nell’aprile 2003,https://www.noipartigiani.it/scarafiotti/,1070266267
Felice Burdino,Piemonte,M,Cumiana (TO),44.98144,7.37537,"Felice Burdino Nato a Cumiana (TO) il 22 settembre 1917, laurea in Lettere Nome di battaglia “Franco Balestrieri” Comandante di distaccamento 4ª Brigata, 1ª Divisione Garibaldi Vice comandante 105ª Brigata Garibaldi Arruolato dal comandante Pompeo Colajanni “Barbato” insieme con il fratello Eraldo, con la sua squadra guidò anche l’assalto all’eroporto di Murello dove, il 2 dicembre 1943, vennero incendiati 32 aerei tedeschi. Sulla sua storia Felice Burdino ha scritto il libro “Diario partigiano” L’intervista è stata realizzata da Francesco Perrone nel novembre 2002",https://www.noipartigiani.it/burdino/,1070265490
Adelmo Franceschini,Emilia Romagna,M,Sala Bolognese (BO),44.61962,11.27218,"Adelmo Franceschini Nato a Sala Bolognese (BO) l’11 settembre 1924, contadino IMI Internato Militare Italiano Catturato dopo l’8 settembre, fu deportato in Germania , Stalag IIIC di Alt Drewitz, sottocampo di Basdorf. L’intervista è stata realizzata nel 2002",https://www.noipartigiani.it/franceschini/,1070265077
Dino Ferrarini,Emilia Romagna,M,Mantova,45.15668,10.79158,"Dino Ferrarini Nato a Mantova il 26 dicembre 1926 Nome di battaglia “Balilla” Ha partecipato alla Resistenza in Piemonte in varie formazioni: 105ª Brigata Pisacane, 5ª Divisione Giustizia e Libertà, 105ª Brigata Garibaldi L’intervista è stata realizzata da Francesco Perrone nel novembre 2004",https://www.noipartigiani.it/ferrarini/,1070264799
Pierino Luvio,Piemonte,M,Canelli (AT),44.72147,8.28681,"Pierino Luvio Nato a Canelli (CN) il 12 marzo 1924 IMI Internato Militare Italiano Catturato a Pola, in Iugoslavia, fu deportato a Fürstenberg, in Germania e poi a Guben Risucì ad evadere l’11 febbraio 1945 e arrivò a Canelli il 17 aprile L’intervista è stata realizzata da Federica Parone e Gianna Menabreaz nel 2006",https://www.noipartigiani.it/luvio/,1070264699
Vincenzo Russo,Liguria,M,Genova,44.40726,8.93386,"Vincenzo Russo Nato a Sestri Ponente (GE) il 7 gennaio 1923, operaio Operaio della fabbrica San Giorgio Fu deportato a Mauthausen il 16 giugno 1944 quando i nazisti rastrellarono 1500 operai nelle fabbriche genovesi in seguito agli scioperi. È la più grande operazione di deportazione operaia effettuata dai nazisti durante il conflitto L’intervista è stata realizzata dall’associazione “Radici con le ali” nel 2000",https://www.noipartigiani.it/russo/,1070266129
Lina Rossi,Liguria,F,Genova,44.40726,8.93386,Lina Rossi Nata a Sestri Ponente (GE) l’8 aprile 1928 Nome di battaglia “Piera” Distaccamento “Alice Noli” L’intervista è stata realizzata dall’associazione “Radici con le ali” nel 2000,https://www.noipartigiani.it/rossi_lina-2/,1066993839
Nunzio Di Francesco,Sicilia/Piemonte,M,Linguaglossa (CT),37.84279,15.14187,Nunzio Di Francesco Nato a Linguaglossa (CT) il 3 febbraio 1924 Nome di battaglia “Athos” 105ª Brigata Garibaldi Deportato nel lager di Mauthausen L’intervista è stata realizzata da Francesco Perrone nel luglio del 2002,https://www.noipartigiani.it/di-francesco/,1069961514
Pietro Giachero,Piemonte,M,Luserna S. G. (TO),44.82136,7.24716,"Pietro Giachero Nato a Luserna San Giovanni (TO) il 3 aprile 1926, studente Nome di battaglia “Piero” 5ª Divisione Giustizia e Libertà, 105ª Brigata Garibaldi L’intervista è stata realizzata da Francesco Perrone nel novembre del 2004",https://www.noipartigiani.it/giachero_pietro/,1070014306
Piero Baravaglio,Piemonte,M,Domodossola (VB),46.11545,8.29177,"Piero Baravaglio Nato a Domodosssola (VB) il 9 luglio 1922, muratore Nome di battaglia “Lupo” 106ª Brigata Garibaldi Comandante di distaccamento L’intervista è stata realizzata da Francesco Perrone ad aprile 2003",https://www.noipartigiani.it/baravaglio/,1069909606
Licinio Savi,Emilia Romagna,M,Fidenza (PR),44.86591,10.06109,"Licinio Savi Nato a Fidenza (PR) il 4 settembre 1921, falegname Nome di battaglia “Veloce” Distaccamento “Peracchi e Lindori”, 31ª Brigata Garibaldi “Forni” L’intervista è stata realizzata da Francesca Maria Ampollini nel 2010",https://www.noipartigiani.it/savi_licinio/,1074296648
Renato Ferrari,Emilia Romagna,M,Salsomaggiore (PR),44.81561,9.97906,"Renato Ferrari Nato a Salsomaggiore (PR) il 18 novembre 1921, autista Nome di battaglia “Frisén” Distaccamento “Fratelli Vignali”, 31ª Brigata Garibaldi Racconta il combattimento di Pietra Nera del 12 ottobre 1944 in cui furono uccisi 7 fascisti e il partigiano Adriano Biolzi “Kira” L’intervista è stata realizzata da Francesca Maria Ampollini nel 2010",https://www.noipartigiani.it/ferrari_renato/,1074304343
Aldo Galelli,Lombardia,M,Gussago (BS),45.59479,10.15392,"Aldo Galelli Nato a Cussago (BS) il 19 novembre 1925 Nome di battaglia “Stelvio” Brigata Pinan Cichero che operava sull’appenino ligure Alpino, faceva parte del battaglione “Vestone” della Divisione Monterosa che nel novembre del 1944 passò quasi interamente nelle file partigiane. L’intervista è stata realizzata nel 2011 da Carlo Gianuzzi per Commissione Scuola ANPI “Dolores Abbiati” di Brescia",https://www.noipartigiani.it/galelli_aldo/,1071771542
Itala Martini,Liguria,F,Rossiglione (GE),44.56201,8.67232,"Itala Martini Nata a Rossiglione (GE) il 25 giugno 1938 Qui ricorda gli avvenimenti del 2 gennaio 1945 quando il paese fu incendiato dai tedeschi in seguito allo scontro di Lagoscuro che, tre giorni prima, aveva portato alla morte dei partigiani Giovanni Battista Olivieri “Pirata”, Tommaso Cartagenova “Sten”, Enrico Mezzani “Mario l’alpino”. Nella rappresaglia sul paese morirono sei persone: Antonia Carlotta Cappelletto, Camillo Odone, Ernesto Firpo, Carlo Michele Puppo, Bernardo Peri, Gian Battista Pignone. L’intevista è stata realizzata nel marzo 2025",https://www.noipartigiani.it/martini_itala/,1071823009
Luigi Saccò,Emilia Romagna,M,Salsomaggiore (PR),44.81561,9.97906,"Luigi Saccò Nato a San Vittore di Salsomaggiore (PR) il 6 aprile 1925, giardiniere Nome di battaglia “Nettuno” Distaccamento Fratelli Vignali, 31ª Brigata Garibaldi Croce di guerra al valor militare L’intervista è stata realizzata da Francesca Maria Ampollini nel 2010",https://www.noipartigiani.it/sacco/,1073630052
Aldo Pilone,Piemonte,M,San Mauro (TO),45.10398,7.76813,"Aldo Pilone Nato a San Mauro (TO) il 18 luglio 1925 Nome di battaglia “Camoscio” 4ª Brigata Garibaldi, 105ª Brigata Garibaldi L’intervista è stata realizzata da Francesco Perrone nell’aprile 2003",https://www.noipartigiani.it/pilone_aldo/,1068143437
Mario Allochis,Piemonte,M,Cavour (TO),44.78652,7.37503,"Mario Allochis Nato a Cavour (TO) il 22 agosto 1921 5ª Divisione Garibaldi Catturato, fu deportato nel lager di Kahla, in Germania. L’intervista è stata realizzata da Francesco Perrone",https://www.noipartigiani.it/allochis_mario/,1071828694
Agostina Bertolotto,Liguria,F,Camogli (GE),44.34861,9.15509,"Agostina Bertolotto Nata a Camogli (GE) l’11 marzo 1925 Nome di battaglia “Titti” Partigiana Combattente , Brigata Giustizia e Libertà Matteotti. Il marito Ivo Manuelli, nato a Recco nel 1923, era partigiano nella stessa brigata L’intervista è stata realizzata nell’aprile 2025",https://www.noipartigiani.it/bertolotto_agostina/,1072544744
Giancarlo Margioni,Lazio,M,Civitavecchia (RM),42.09117,11.79632,"Giancarlo Margioni Nato a Civitavecchia (Roma) nel 1936 Racconta la storia del padre Antonio, nato il 19 dicembre 1900, arrestato mentre svolgeva attività clandestina per il CLN e ucciso il 24 marzo 1944 alle Fosse Ardeatine dove vennero trucidati 335 prigionieri politici. L’intervista è stata realizzata nel 2022",https://www.noipartigiani.it/margioni/,1072597071
Maria Carle,Piemonte,F,Barge (CN),44.72621,7.3223,"Maria Carle Nata a Barge (CN), impiegata Racconta gli inizi dell’attività partigiana nel paese, l’incontro con il comandante Pompeo Colajanni “Barbato”, l’incendio della sua casa da parte dei tedeschi. Il marito Piero Gacoletti “Gabiola” faceva parte della 4ª Brigata Garibaldi Nell’intervista fa riferimento alla morte di Costanzo Carle “Topolino” impiccato il 12 luglio 1944 L’intervista è stata realizzata da Francesco Perrone nel 2002",https://www.noipartigiani.it/carle_maria/,1069539027
Antonio Giolitti,Lazio,M,Roma,41.89332,12.48293,"Antonio Giolitti Nato a Roma il 12 febbraio 1915, avvocato Nome di battaglia “Paolo” Commissario politico nel comando VIIª Zona e 1ª Divisione Garibaldi Dopo la guerra fu più volte ministro L’intervista è stata realizzata da Francesco Perrone nell’agosto 2004",https://www.noipartigiani.it/giolitti_antonio/,1069298763
Vincenzo Grimaldi,Sicilia,M,Caltagirone (CT),37.23412,14.51239,"Vincenzo Grimaldi Nato a Caltagirone (CT) il 21 maggio 1922 Nome di battaglia “Bellini” Vicecomandante di brigata Battaglione Pisacane, 15ª Brigata Garibaldi, 181ª Brigata Garibaldi Sulla sua vita partigiana, Vincenzo Grimaldi ha scritto il libro “Tutti pazzi o tutti eroi” L’intervista è stata realizzata da Francesco Perrone nel 2002",https://www.noipartigiani.it/grimaldi/,1070293259
Angelo Travaglia,Veneto,M,Piove di Sacco (PD),45.29742,12.03603,"Angelo Travaglia Nato a Piove di sacco (PD) il 27 agosto 1923, impiegato Battaglione Patria, 5ª Brigata Osoppo in Friuli Catturato, nel gennaio del 1945 viene inviato nel campo di concentramento di Flossenburg in Germania L’intevista è stata realizzata nel settembre 1996 da Paolo Stacchini che ha scritto anche il libro “Un Uomo. Angelo Travaglia”",https://www.noipartigiani.it/travaglia_angelo/,1067286031
Pietro Rosso,Piemonte,M,Canelli (AT),44.72147,8.28681,"Pietro Rosso Nato a Canelli (CN) il primo novembre 1915 Disertore, catturato il 2 dicembre 1944, venne internato nel lager di Bolzano L’intervista è stata realizzata da Giuseppe De Paolini e Gian Carlo Sacrrone nel 2011",https://www.noipartigiani.it/rosso_pietro/,1064392481
Nella Galavotti,Lombardia,F,Quistello (MN),44.9912,10.97931,"Nella Galavotti Nata a Quistello (MN) il 22 gennaio 1924, operaia Nome di battaglia “Nelly” Divisione Valgrande Nell’intervista fa riferimento all’eccidio di Fondotoce del 20 giugno 1944 quando furono fucilati 43 partigiani (uno di loro, Carlo Suzzi, si salvò e tornò in montagna con il nome di battaglia di “Quarantre”) L’intervista è stata realizzata da Paolo De Toni nell’ottobre del 2011",https://www.noipartigiani.it/galavotti-2/,1064401125
Valter Vallicelli,Emilia Romagna,M,Ravenna,44.41723,12.19914,Valter Vallicelli Nato a Ravenna il 12 giugno 1927 Nome di battaglia “Tabac” 28ª Brigata Garibaldi Mario Gordini Qui racconta un episodio agli inizi dell’attività clandestina,https://www.noipartigiani.it/vallicelli/,1051613307
Furio Talluri,Toscana,M,Siena,43.31855,11.33214,"Furio Talluri Nato a Siena il 24 agosto 1922, ufficiale dei bersaglieri Nome di battaglia “Corvo” Raggrupamento Monte Amiata, poi volontario nel Nuovo Esercito Italiano A intervistarlo nel 1993 è Vittorio Meoni, partigiano “Sosso”, allora presidente dell’Anpi provinciale di Siena",https://www.noipartigiani.it/talluri/,1058272827
Sergio Penna,Piemonte,M,Canelli (AT),44.72147,8.28681,"Sergio Penna Nato a Canelli (AT) il 13 dicembre 1924, sarto Nome di battaglia “Jana” Formazione Autonoma Davide al comando di Giovanni Rocca “Primo”, 1ª Divisione Autonoma Langhe al comando di Enrico Martini “Mauri” L’intervista è stata realizzata da Mauro Stroppiana e Gian Carlo Scarrone nel dicembre 2016",https://www.noipartigiani.it/penna_sergio/,1061209164
Alberto Persichini,Liguria,M,Marsiglia (Francia),43.29617,5.36995,Alberto Persichini Nato a Marsiglia (Francia) il 14 agosto 1925 Operaio della fabbrica San Giorgio a Genova Venne deportato nel campo di Berlino-Marienfelde il 16 giugno 1944 quando i nazisti rastrellarono 1500 operai nelle fabbriche genovesi in seguito agli scioperi e alle rivedicazioni dei mesi precedenti. È la più grande operazione di deportazione operaia effettuata dai nazisti durante il conflitto Le testimonianze sono state raccolte insieme con l’Associazione 16 Giugno 1944 nel 1996,https://www.noipartigiani.it/persichin/,1062054678
Dina Manaresi,Emilia Romagna,F,Conselice (RA),44.51268,11.83103,Dina Manaresi Nata a Conselice (RA) il 3 marzo 1923 Staffetta L’intervista è stata realizzata nel febbraio 2020,https://www.noipartigiani.it/manaresi_dina/,1065139932
Fausta Siri,Liguria,F,Urbe (SV),44.48834,8.59114,"Fausta Siri Nata a Marasca, Urbe (SV) il primo gennaio 1926 Nome di battaglia “Rita” Staffetta Brigata Buranello Si è battuta per smentire la falsa narrazione del cosidetto Eccidio del Manfrei, dove duecento militi della San Marco sarebbero stati uccisi dai partigiani, una vicenda che non ha mai trovato conferma. L’intervista è stata realizzata da Michelangelo Pesce nel 2016",https://www.noipartigiani.it/siri_fausta/,1065487266
Biagio Gionfra,Lazio,M,Vignanello (VT),42.38463,12.27788,"Biagio Gionfra Nato a Vignanello (VT) il 26 maggio 1926, barbiere Il padre aveva fondato la sezione del partito comunista del suo paese e quindi era stato costretto a lasciare il paese per trasferirsi a Milano Biagio ha fatto la resistenza in Lombardia, 75ª Brigata Garibaldi",https://www.noipartigiani.it/gionfra/,1065938033
Sebastiano Tardito,Piemonte,M,Canelli (AT),44.72147,8.28681,"Sebastiano Tardito Nato a Canelli (AT) il 10 agosto 1923 IMI Internato Militare Italiano Catturato dai tedeschi fu deportato prima alla Risiera di San Sabba, poi al lager di Dachau L’intervista è stata realizzata da Giuseppe De Paolinis e Gianna Menabreaz nel maggio 2013",https://www.noipartigiani.it/tardito_sebastiano/,1060457883
Giacomo Ferrari,Liguria,M,Genova,44.40726,8.93386,Giacomo Ferrari Nato a Genova il 21 settembre 1926 Operaio al Cantiere Navale di Sestri Ponente Venne deportato a Mauthausen il 16 giugno 1944 quando i nazisti rastrellarono 1500 operai nelle fabbriche genovesi in seguito agli scioperi e alle rivedicazioni dei mesi precedenti. È la più grande operazione di deportazione operaia effettuata dai nazisti durante il conflitto,https://www.noipartigiani.it/ferrari_giacomo/,1062052086
Luigi Costelli,Liguria,M,Genova,44.40726,8.93386,Luigi Costelli Nato a Sestri Ponente (GE) il 20 luglio 1926 Operaio nella fabbrica San Giorgio Venne deportato nel campo di Berlino- Falkensee il 16 giugno 1944 quando i nazisti rastrellarono 1500 operai nelle fabbriche genovesi in seguito agli scioperi e alle rivedicazioni dei mesi precedenti. È la più grande operazione di deportazione operaia effettuata dai nazisti durante il conflitto Le testimonianze sono state raccolte insieme con l’Associazione 16 Giugno 1944 nel 1996,https://www.noipartigiani.it/costelli/,1062424556
Tatiana Ghirelli,Liguria,F,Genova,44.40726,8.93386,"Tatiana Ghirelli Nata a Genova nel 1930 Il padre Agostino e la madre Iolanda Cioncolini furono molto attivi durante al Resistenza fino alla cattura avvenuta nel luglio del 1944. Processati, vennero inviati nel lager di Bolzano da dove entrambi hanno fatto ritorno. Nell’intervista fa riferimento a Germano Jori, comandante di Gap di Genova, ucciso il 13 luglio 1944 dai fascisti",https://www.noipartigiani.it/ghirelli/,1062484224
Nello Marignoli,Lazio,M,Viterbo,42.4172,12.10515,"Nello Margignoli Nato a Viterbo il 19 aprile 1923 Marinaio, catturato dai tedeschi dopo l’8 settembre è stato costretto al lavoro coatto in Iugoslavia Fuggito, ha raggiunto le formazioni dei partigiani Iugoslavi, Xª Brigata Herzegovaska È medaglia di Bronzo al valor Militare e ha ricevuto la Spomen Medalju iugoslava Il partigiano iugoslavo a cui fa riferimento è Gojko Savoic Una sua intervista è contenuta nel libro “Io sono l’ultimo” a cura di Giacomo Papi e Andrea Liparoto, mentre sulla sua storia sono stati realizzati il documentario “Mio fratello Gojko” e lo spettacolo teatrale “Drug Gojko”",https://www.noipartigiani.it/marignoli_nello/,1062833420
Armando Bellotti,Piemonte,M,Canelli (AT),44.72147,8.28681,"Armando Bellotti Nato a Canelli (CN) il 17 novembre 1923 IMI Internato Militare Italiano Catturato in Grecia fu deportato a Metten, al confine olandese, e a Dorsten L’intervista è stata realizzata nel 2013",https://www.noipartigiani.it/bellotti_armando/,1058951294
Cesare Bertolini,Piemonte,M,Canelli (AT),44.72147,8.28681,"Cesare Bertolini Nato a Canelli (AT) nel 1921 IMI Internato Militare Italiano Catturato sul fronte greco, ha passato due anni nei campi di lavoro in Germania L’intervista è stata realizzata da Romano Terzano e Gian Carlo Scarrone nel settembre 2013",https://www.noipartigiani.it/bertolini_cesara/,1063240810
Battista Scaglione,Piemonte,M,Canelli (AT),44.72147,8.28681,"Battista Scaglione Nato a Canelli (AT) il 19 gennaio 1926, contadino Nome di battaglia “Leone” Formazione autonoma Davide comandata da Giovanni Rocca “Primo” Catturato nel luglio 1944 è stato deportato in Germania a Gendorf, sottocampo di Dachau L’intervista è stata realizzata da Gianna Menabreaz e Franco Rossi nel marzo 2006",https://www.noipartigiani.it/scaglione/,1064620640
Solidea Paoli,Toscana,F,Seravezza (LU),43.99615,10.22878,"Solidea Paoli Nata a Riomagno di Seravezza (LU) nel 1931 Il fratello Amos, benché costretto a muoversi con una carrozzina per le conseguenze di una poliomielite, collaborò con i partigiani portando armi e messaggi. Il 24 giugno 1944 fu catturato e il 27 fu ucciso dopotre giorni di sevizie. Ha ricevuto la Medaglia d’Oro al Valor Militare Nell’intervista fa riferimento al fratello Solitario, mentre un altro fratello, Lino, fu ferito mentre faceva il partigiano. La casa della famiglia Paoli fu minatae fatta saltare in aria dai tedeschi.",https://www.noipartigiani.it/paoli_solidea/,1060841760
Aldo Marmo,Piemonte,M,Canelli (AT),44.72147,8.28681,"Aldo Marmo Nato a Canelli (AT) il 5 febbraio 1925, operaio Nome di battaglia “Bandiera” 78ª Brigata Graibaldi L’intervista è stata realizzata nel febbraio 2014 da Mauro Stroppiana e Giancarlo Scarrone",https://www.noipartigiani.it/marmo/,1060859766
Diano Casoni,Emilia Romagna,M,Pianoro (BO),44.38573,11.34114,Diano Casoni Nato a Pianoro (BO) il 20 aprile 1927 Nome di battaglia “Diavolo” Brigata “Irma Bandiera” L’intervista è stata realizzata da Vittoria Comellini nel marzo 2010,https://www.noipartigiani.it/casoni/,1058923640
Dario Castelli,Emilia Romagna,M,Monghidoro (BO),44.22306,11.31976,Dario Castelli Nato a Monghidoro (BO) il 27 luglio 1926 Brigata “Stella Rossa” L’intervista è stata realizzata da Vittoria Comellini nell’ottobre 2008,https://www.noipartigiani.it/castelli/,1058923361
Francesco Lorenzini,Emilia Romagna,M,Monghidoro (BO),44.22306,11.31976,"Francesco Lorenzini Nato a Monghidoro (BO) il 22 luglio 1917 Dopo l’8 settembre fu fatto prigioniero dai tedeschi in Iugoslavia. Fuggì con 53 compagni e raggiunse i partigiani Brigata Italia, Divisione Garibaldi L’intervista è stata realizzata da Vittoria Comellini nel 2008",https://www.noipartigiani.it/lorenzini/,1058506473
Giovanni Pasquali,Veneto,M,Arcole (VR),45.35824,11.28616,Giovanni Pasquali Nato ad Arcole (VR) nel 1924 IMI Internato Militare Italiano Catturato dopo l’8 settembre 1943 fu deportato in Germania dove lavorò im una fabbrica di sommergibili. Fu liberato dagli americani nell’aprile del 1945. L’intervista è stata realizzata da Federica Parone e Gianna Menabreaz nel 2006,https://www.noipartigiani.it/pasquali_giovanni-2/,1060886373
Mario Pesce,Piemonte,M,Acqui Terme (AL),44.67566,8.46884,Mario Pesce Nato ad Acqui (AL) il 25 novembre 1924 IMI Internato Militare Italiano Ha trascorso due anni nei campi di lavoro coatto in Germania L’intervista è stata realizzata da Mauro Stroppiana nell’agosto 2015,https://www.noipartigiani.it/pesce_mario/,1061188591
Luciano Busani,Emilia Romagna,M,Modena,44.64588,10.92561,"Luciano Busani Nato a Modena il 15 giugno 1925, studente Nome di battaglia “Franco” Brigata Italia comandata da Ermanno Gorrieri “Claudio” Il Paradisino a cui fa riferimento nell’intervista era un circolo dell’Azione Cattolica dove i giovani venivano istruiti all’antifascismo da Don Marino Bergonzini",https://www.noipartigiani.it/busani_lucio/,1060406850
Lina Tellini Argo,Piemonte,F,Domodossola (VB),46.11545,8.29177,"Lina Argo Tellini Nata a Domodossola (VB) nel 1935 Di famiglia antifascista, fa parte delle migliaia di bambini che vennero mandati in Svizzera dopo la caduta della Repubblica Partigiana dell’Ossola nell’ottobre 1944. Lina ha lasciato la famiglia nell’ottobre 1944 ed è tornata in Italia nel giugno 1945. La sua testimonianza è raccolta anche nel libro “Il paese del pane bianco” a cura di Paolo Bologna L’intervista è stata realizzata da Paolo De Toni nell’april 2017",https://www.noipartigiani.it/argo_tellini_lina/,1060176986
Ferruccio Mazza,Emilia Romagna,M,Ferrara,44.83448,11.61986,"Ferruccio Mazza Nato a Ferrara il 12 settembre 1921 Catturato per non essersi arruolato con la Repubblica Sociale, fu deportato a Ludwigshafen e Annweiler Gli è stata dedicata una scuola nel quartiere Barco di Ferrara",Non trovato nel Foglio3,#N/A
Otello Dalla Casa,Emilia Romagna,M,Medicina (BO),44.47879,11.64024,"Otello Dalla Casa Nato a Medicina (BO) il 28 dicembre 1924, contadino IMI Internato Militare italiano Soldato del 63° Reggimento Famteria fu catturato dopo l’8 settembre e deportato a Grünhain, in Germania L’intervista è stata realizzata a novembre 2024",https://www.noipartigiani.it/dalla_casa_otello/,1038598182
Alessandro Barbieri,Piemonte,M,Serravalle Sesia (VC),45.68884,8.31174,"Alessandro Barbieri Nato a Serravalle Sesia (VC) nel 1930, fornaio Racconta la sua esperienza di ragazzo appartentente a una famiglia antifascista che forniva supporto ai partigiani e di garzone del fornaio che riforniva le formazioni Archivio privato (testimone) – L’intervista è stata realizzata da Paolo De Toni nel dicembre 2013",https://www.noipartigiani.it/barbieri_alessandro-testimone/,1047190232
Silvano Lisi,Emilia Romagna,M,Rimini,44.05938,12.56843,Silvano Lisi Nato a Rimini l’8 dicembre 1925 Nome di battaglia “Bardan” 8ª Brigata Garibaldi Sap di Forlì Dopo la fine della guerra andò volontariamente a fare lo sminatore sulla Linea Gotica,https://www.noipartigiani.it/lisi_silvano/,1053446554
Marcantonio Bragadin,Toscana,M,Viareggio (LU),43.86938,10.24729,Marcantonio Bragadin Nato a Viareggio (LU) il 2 novembre 1926 Formazione “Marcello Garosi” Partigiano combattente L’intervista è stata realizzata nel marzo 2020,https://www.noipartigiani.it/bragadin/,1054168673
Vera Aldinucci,Toscana,F,Siena,43.31855,11.33214,"Vera Aldinucci Avanzati Nata a Siena il 18 ottobre 1919, impiegata Ha svolto attività clandestina con il padre e il fidanzato Fortunato Avanzati diventato poi comandante della Brigata Garibaldi ” Spartaco Lavagnini” con il nome di battaglia di “Viro” L’intervista è stata realizzata nel 1994",https://www.noipartigiani.it/avanzati_aldinucci_vera/,1057929905
Tonino Malossi,Emilia Romagna,M,Bentivoglio (BO),44.6366,11.41775,"Tonino Malossi Nata a Bentivoglio (BO) il 17 gennaio 1922, falegname Nome di battaglia “Fracassa” IVª Brigata Venturoli L’intervista è stata realizzata nel febbraio 2025",https://www.noipartigiani.it/malossi/,1059775577
Verdiano Rampolli,Emilia Romagna,M,Imola (BO),44.35345,11.71424,"Verdiano Rampolli Nato a Imola (BO) il 18 ottobre 1925, ferroviere Brigata Sap Imola Patriota Il fratello Orlando, nome di battaglia “Teo”, fece parte della 36ª Brigata Bianconcini e della 7ª Brigata Gap Garibaldi Gianni",https://www.noipartigiani.it/rampolli/,1058943518
Dante Unti,Toscana,M,Porcari (LU),43.84278,10.61747,"Dante Unti Nato a Rughi Porcari (LU) il 9 novembre 1919, sarto IMI, Internato Militare Italiano Catturato dopo l’8 settembre in Iugoslavia, fu deportato nel campo di Stablack L’intervista è stata realizzata per il documentario di Roberto Carli “80 anni dopo” del 2019 Accanto a lui compare anche la moglie Angela Vellutini",https://www.noipartigiani.it/unti/,1060002429
Annamaria Dal Bo,Veneto,F,Vittorio Veneto (TV),45.98188,12.29656,"Annamaria Dal Bo Nata a Vittorio Veneto (TV) il 28 marzo 1925, studentessa Ha collaborato con il gruppo antifascista di studenti cattolici di cui facevano parte il fratello Severino, Nicola Boffa a cui i fascisti uccisero il padre, Ugo Tolot che diventerà il marito di Anna Maria. Sulla la loro storia Pier Paolo Brescacin ha scritto il libro ” Nicola, Severino e gli altri. Storia del gruppo cospirativo degli studenti vittoriesi dell’Azione cattolica” L’intervista è stata realizzata nel febbraio 2025",https://www.noipartigiani.it/dal-bo/,1059668582
Davide Massei,Toscana,M,Lucca,43.84459,10.5045,"Davide Massei Nato a Lucca il 30 maggio 1922, contadino IMI Internato Militare Italiano Catturato in Dalmazia l’8 settembre, fu deportato a Schonebeck, un sottocampo di Buchenwald L’intervista è stata realizzata per il documentario di Roberto Carli “80 anni dopo” del 2019",https://www.noipartigiani.it/massei/,1058923884
Aldo Adorno,Piemonte,M,Canelli (AT),44.72147,8.28681,"Aldo Adorno Nato a Canelli (AT) il 26 dicembre 1923 IMI Internato Militare Italiano Catturato in Grecia dopo l’8 settembre 1943, fu deportato prima a Berlino dove lavorava allo sgombero delle macerie dopo i bmbardamenti, poi in una fabbrica in Cecoslovacchia L’Intervista è stata realizzata da Federica Parone e Gianna Menabreaz nel 2006",https://www.noipartigiani.it/adorno_n/,1057520228
Luciano Cordara,Piemonte,M,Canelli (AT),44.72147,8.28681,"Luciano Cordara Nato a Canelli (AT) il 7 gennaio 1923 IMI, Internato Militare Italiano L’8 settembre lo sorprende in Iugoslavia: si aggrega ai partigiani di Tito , ma dopo un mese viene catturato dai tedeschi e deportato in Germania L’intervista è stata realizzata da Gianna Menabreaz e Franco Rossi",https://www.noipartigiani.it/cordara/,1058248278
Piero Boni,Emilia Romagna,M,Reggio Emilia,44.69824,10.63125,"Piero Boni Nato a Reggio Emilia il 19 ottobre 1920, studente Nome di battaglia “Piero Coletti” Brigata Matteotti Val di Taro, missioni Cayuga e Rochester nel parmense in collaborazione con l’OSS, l’Office Stategic Service americano. Medaglia d’Argento al Valor Militare Dopo la guerra diventerà segretario della FIOM e segretario aggiunto della CGIL La sua storia è raccontata nel libro “Memorie di una generazione” a cura di Simone Neri Serneri L’intervista è stata realizzata nel 2007",https://www.noipartigiani.it/boni/,1058278728
Davide Quaglia,Piemonte,M,Canelli (AT),44.72147,8.28681,"Davide Quaglia Nato a Canelli (AT) il 19 aprile 1924 Brigata Mazzini Militare, fuggito dal treno che lo porta in Germania, finito a San Vittore come renitente, si trova aggregato ai partigiani nei giorni della Liberazione di Milano finendo a fare il servizio d’ordine a Piazzale Loreto L’intervista è stata realizzata nell’agosto 2013 da Mauro Stroppiana e Giancarlo Scarrone",https://www.noipartigiani.it/quaglia-2/,1058279008
Margherita Belotti,Lombardia,F,Albino (BG),45.76296,9.79469,Margherita Belotti Nata ad Albino (BG) il 24 settembre 1917 Nome di battaglia “Rina” Sergente Maggiore Staffetta per il comando della 2ª Divisione Garibaldi stanziata in Valtellina L’intervista è stata realizzata nel giugno 2009 da Piero Scaramucci e Andrea Strambio per la sezione “Almo Colombo”,https://www.noipartigiani.it/belotti/,1051862643
Ermanno Villani,Emilia Romagna,M,Salsomaggiore (PR),44.81561,9.97906,Ermanno Villani Nato a Salsomaggiore (PR) il 22 luglio 1927 Nome di battaglia “Riri” 31ª Brigata Garibaldi Forni L’intervista è stata realizzata nel 2018,https://www.noipartigiani.it/villani_ermanno/,1057466389
Laurenti Giapparize,Piemonte,M,Gadei (Georgia),42.49392,42.36873,"Laurenti Giapparize Nato a Gadei (Georgia) il 19 aprile 1919 Soldato dell’Armata Rossa fu catturato dai tedeschi e costretto al lavoro coatto Con altri 17 commilitoni si aggregò ai partigiani della 85ª Brigata Valgrande Martire guidata da Mario Muneghina. In montagna lo curò l’infermiera Maria Peron e i due si sposarono il 15 agosto 1945 A Maria Peron è intitolata una scuola a Verbania, mentre la sua storia è raccontata nel libro “Maria, nata per la libertà” di Amalia Frontali L’intervista è stata realizzata da Paolo De Toni nel luglio 2011",https://www.noipartigiani.it/laurenti_giapparize/,1055168626
Carlo Rovelli,Lombardia,M,Milano,45.46419,9.18963,"Carlo Rovelli Nato a Milano il 27 ottobre 1925, operaio Nome di battaglia “Rovo” Divisione Valdossola L’intervista è stata realizzata da Paolo De Toni nel 2015",https://www.noipartigiani.it/rovelli/,1056349606
Guido Baroni,Emilia Romagna,M,Anzola dell'Emilia,44.54714,11.19655,"Guido Baroni Nata ad Anzola dell’Emilia il 5 settembre 1926 Nella cascina della sua famiglia c’era la “Base Baroni” , una delle basi partigiane della zona L’intervista è stata realizzata nel marzo 2002",https://www.noipartigiani.it/baroni-k/,1057808633
Carlo Sorbellini,Toscana,M,San Quirico d’Orcia (SI),43.05836,11.60533,"Carlo Sorbellini Nato a San Quirico d’Orcia (SI) il 27 settembre 1919, libraio e fotografo Nome di battaglia “Carlomagno” Raggruppamento Monte Amiata Dopo la Liberazione della Toscana, si arruolò volontario nel Nuovo Esercito Italiano, gruppo di Combattimento Cremona a fianco delle truppe alleate Ha raccontato la sua storia nel linro “Le mie memorie” A intervistarlo nel 1993 è Vittorio Meoni, partigiano “Sosso”, allora presidente dell’Anpi provinciale di Siena",https://www.noipartigiani.it/sorbellini/,1050817254
Gherardo Vezzani,Emilia Romagna,M,Correggio (RE),44.77121,10.78082,"Gherardo Vezzani Nato a Lemizzone di Correggio (RE) il 24 aprile 1921 Nome di battaglia “Ugo” Distaccamento “Bedeschi”, 26ª Brigata Garibaldi Partigiano combattente L’intervista è stata realizzata nel 1996",https://www.noipartigiani.it/vezzani_gherardo/,1049699738
Renato Masi,Toscana,M,Siena,43.31855,11.33214,"Renato Masi Nato a Siena l’8 novembre 1924, elettricista 1° Distaccamento “Borgianni e Boschi”, Brigata “Spartaco Lavagnini” A intervistarlo nel 1993 è Vittorio Meoni, partigiano “Sosso”, allora presidente dell’Anpi provinciale di Siena",https://www.noipartigiani.it/masi/,1054508364
Mauro Zito,Sicilia,M,San Mauro Castelverde (PA),37.9137,14.18956,"Mauro Zito Nato a San Mauro Castelverde (PA) il 26 novembre 1923, contadino Nome di battaglia “Palermo” Ha fatto la Resistenza in Piemonte, nella 105ª Brigata Garibaldi al comando di Pompeo Colajanni “Barbato” L’intervista è stata realizzata nel 2011 da Giuseppe Spallino",https://www.noipartigiani.it/zito/,1054543897
Duilio Paesani,Emilia Romagna,M,Montescudo (RN),43.92131,12.5458,"Duilio Paesani Nato a Traviri di Montescudo (RN) il 3 agosto 1925 8ª Brigata Garibaldi In montagna era con Adelio Pagliarani, uno dei tre partigiani che furono impiccati in piazza delle Erbe a Rimini il 16 agosto 1944. Dopo la Liberazione è diventata Piazza Tre Martiri",https://www.noipartigiani.it/paesani/,1052369819
Rita Fabrissin,Friuli Venezia Giulia,F,Ruda (UD),45.83694,13.40722,Rita Fabrissin Nata a Ruda (UD) il 10 luglio 1926 Nome di battaglia “Fioretta” Divisione Garibaldi Patriota,https://www.noipartigiani.it/fabrissin/,1053102376
Serafino Morsiani,Emilia Romagna,M,Imola (BO),44.35345,11.71424,"Serafino Morsiani Nato a Imola (B0) il 10 agosto 1927, calzolaio Nome di battaglia “Fino” Brigata Sap Imola-Santerno",https://www.noipartigiani.it/morsiani_serafino/,1055250803
Marina Dell’Oro,Piemonte,F,Premosello-Chiovenda (VB),46.00287,8.3323,Marina Dell’Oro Nata a Colloro frazione di Premosello (VB) il 16 agosto 1933 Racconta l’attività del padre Geremia e della famiglia in appoggio ai partigiani della Valdossola guidati da Dionigi Superti che aveva stabilito il comando a Colloro. Nell’intervista fa riferimento anche ai contrasti con Mario Muneghina che lascerà la Valdossola per creare la brigata Valgrande martire. E l’episodio di una spia tedesca che si spacciava per inglese e che fu giustiziata dai partigiani. L’intervista è stata realizzata da Nico Tordini nel giugno 2021,Non trovato nel Foglio3,#N/A
Ferruccio Bezzoli,Piemonte,M,Baveno (VB),45.90838,8.50337,"Ferruccio Bezzoli Nato a Baveno (VB) il 9 novembre 1923 Marinaio scelto Ha fatto parte di equipaggi che dopo l’8 settembre affiancarono gli inglesi in missioni di appoggio alla Resistenza Per questo, nel 2016, ha ricevuto la medaglia della Liberazione L’intervista è stata realizzata da Paolo De Toni nel luglio 2017",https://www.noipartigiani.it/bezzoli_ferruccio/,1056428932
Messina Batazzi,Toscana,F,Monticiano (SI),43.13327,11.17387,"Messina Batazzi Nata a Monticiano (SI), il 17 maggio 1914 Nome di battaglia “Ida” Staffetta per il comando della Brigata Garibaldi “Spartaco Lavagnini” L’8 settembre il fratello Sergio si trovava in Jugoslavia e si unì ai partigiani locali L’intervista è stata realizzata nel 1992",https://www.noipartigiani.it/battazzi_messina/,1056724367
Sergio Cigognini,Lombardia,M,Milano,45.46419,9.18963,"Sergio Cigognini Nato a Milano il 29 maggio 1926, operaio 85ª Brigata Garibaldi che operava in Valgrande L’intervista è stata realizzata da Paolo De Toni nel marzo 2016",https://www.noipartigiani.it/cigognini/,1047212095
Franco Gibaldi,Lombardia,M,Milano,45.46419,9.18963,"Franco Gibaldi Nato a Milano il 24 febbraio 1925, operaio Divisione Valdossola Ha partecipato alla Resistenza insieme con i fratelli Luigi, Carlo ed Enrico che fu ferito in combattimento nei giorni della Liberazione. Anche la moglie di Carlo, Rosalia Patta collaborò come staffetta. L’intervista è stata realizzata da Nico Tordini nel marzo del 2016",https://www.noipartigiani.it/gibaldi/,1047525415
Nella Carli,Friuli Venezia Giulia,F,Cordenons (PN),45.95922,12.71183,"Nella Carli Nata a Cordenons (PN) il 28 gennaio 1923, operaia Nome di battaglia “Dora” Ha partecipato allo sciopero dell’agosto 1944 al cotonificio Makò dove lavorare anche il padre Vittorio, antifascista e incarcerato. Staffetta L’intervista è stata realizzata nell’aprile 2024 da Maurizio Marcon e Gianluigi Bettoli",https://www.noipartigiani.it/carli_nella/,1033134813
Carmen Nanotti,Piemonte,F,Lione (Francia),45.75781,4.83201,"Carmen Nanotti Nata a Lione (Francia) il 5 marzo 1924 Ha svolto attività clandestina a Torino, dove lavorava alla Fiat, nel partito comunista clandestino e con le organizzazioni resistenti femminili. Nell’intervista fa riferimento alle sorelle Vera e Libera Arduino uccise dai fasciti il 12 marzo 1945. Fu ucciso anche il padre Gaspare, operaio antifascista L’intervista è stata realizzata nel 2015",https://www.noipartigiani.it/nanotti/,1049354409
Giorgio Bettini,Emilia Romagna,M,Imola (BO),44.35345,11.71424,"Giorgio Bettini Nato a Imola (B0) il 16 aprile 1929, studente 36ª Brigata Bianconcini, Brigata Sap Imola- Santerno Dopo la Liberazione di Bologna, cercò di arruolarsi nella Divisione Cremona del Nuovo Esercito Italiano ma venne rimandato a casa perché troppo giovane",https://www.noipartigiani.it/bettini_giorgio/,1055643854
Alfredo Finelli,Emilia Romagna,M,Anzola dell'Emilia (BO),44.54714,11.19655,"Alfredo Finelli Nato ad Anzola dell’Emilia (BO) il 14 aprile 1921, contadino Nella cascina della sua famiglia c’era una delle basi partigiane della zona L’intervista è stata realizzata nel marzo 2002",https://www.noipartigiani.it/finelli/,1057512181
Dario Formichi,Toscana,M,Pienza (SI),43.07681,11.67875,"Dario Formichi Nato a Pienza (SI) il 30 dicembre 1922, maestro Nome di battaglia “Porsenna” Raggruppamento Monte Amiata, formazione Mencattelli La battaglia di Monticchiello a cui fa riferimento, avvenne il 6 aprile 1944 quando una sessantina di partigiani si scontratono con 180 fascisti costringendoli alla ritirata L’intervista è stata realizzata nel 2000 da Fabio Masotti e Silvia Folchi",https://www.noipartigiani.it/formichi/,1050816814
Anna Ponta,Liguria,F,Parodi Ligure (AL),44.66632,8.81308,"Anna Ponta Nata a Parodi Ligure (AL) il 7 novembre 1919 Con la famiglia aiutava i partigiani della 3ª Brigata Garibaldi Liguria Uno dei suoi fratelli Giovanni, venne ucciso dai tedeschi. Lei venne arrestata e rimase in carcere a Genova per due mesi",https://www.noipartigiani.it/ponta_anna/,1055142151
Giuseppe Avorio,Umbria,M,Umbertide (PG),43.30521,12.33534,"Giuseppe Avorio Nato a Niccone, Umbertide (Pg) il 27 luglio 1940 La notte del 28 giugno 1944, a Penetola di Niccone i nazisti uccisero 12 civili. Le vittime facevano parte delle famiglie Avorio e Lucchetti, mezzadri, Forni e Nencioni, sfollati. Giuseppe riuscì a salvarsi, ma quella notte perse i fratelli Antonio 11 anni, Carlo 8 anni, Renato 14 anni. La figlia di Giuseppe, Paola Avorio, con lui nel video, ha scritto sulla vicenda il libro “Tre noci”, gli alberi che Mario, padre di Giuseppe, dopo la guerra piantò per ricordare i figli morti Il filmato è del maggio 2023",https://www.noipartigiani.it/avorio_2/,1051467890
Clelio Magnaghi,Piemonte,M,Valstrona (VB),45.90803,8.34293,"Clelio Magnaghi Nato a Valstrona (VB) il 13 marzo 1924 Nome di battaglia “Camuss” (camoscio) 2ª Brigata Garibaldi, Divisione Valtoce Anche altri tre fratelli, Luigi, Eugenio, Gabriele, erano nei partigiani L’intervista è stata realizzata da Paolo De Toni nell’agosto 2015",https://www.noipartigiani.it/magnaghi_clelio/,1047165194
Ugo Ferrari,Piemonte,M,Cannobio (VB),46.06283,8.70014,"Ugo Ferrari Nato a Cannobio (VB) il 10 giugno 1928, boscaiolo Formazione “Cesare Battisti” Ha partecipato ai 40 giorni della Repubblica partigiana dell’Ossola da settembre a ottobre 1944 L’intervista è stata realizzata da Paolo De Toni nell’agosto 2013",https://www.noipartigiani.it/ferrari_ugo/,1050821065
Pierina Ferrari,Piemonte,F,Tagliolo Monferrato (AL),44.63935,8.66723,"Pierina Ferarri Nato a Tagliolo (AL) il 26 aprile 1913 Nome di battaglia “Milly” Partigiana combattente, Staffetta Brigata Garibaldi Macchi che operava nella zona di Ovada e della Bendicta Sulla sua storia Federico Fornaro ha scritto il libro “Pierina. La staffetta dei ribelli”",https://www.noipartigiani.it/ferrari/,1053699108
Artullo Beltrami,Emilia Romagna,M,Correggio (RE),44.77121,10.78082,"Artullo Beltrami Nato a Correggio (RE) il 17 febbraio 1924 Nome di battaglia “Luciano” Distaccamento “Montanari”, 145ª Brigata Garibaldi L’intervista è stata realizzata nel 1996",https://www.noipartigiani.it/beltrami/,1051045022
Celeste Tabacchini,Lombardia,M,Azzio (VA),45.89139,8.70932,"Celeste “Tito” Tabacchini Nato ad Azzio (VA) il 28 novembre 1923 Nome di battaglia “Tito” Divisione Autonoma Valdolssola comandata da Dionigi Superti. Nell’intervista si fa riferimento alla Repubblica partigiana dell’Ossola che durò dal 10 settembre al 23 ottobre 1944, L’intervista è stata realizzata da Nico Tordini nel novembre 2016",https://www.noipartigiani.it/tabacchini/,1038270997
Giuliva Pestelli,Liguria,F,Genova,44.40726,8.93386,"Nata a Genova Sestri Ponente il 4 ottobre 1926 Nome di battaglia “Mara” Brigata Garibaldi Sap “Alice Noli” Sottotenente Benché solo diciassettenne, fu molto attiva nell’organizzazione dei Gruppi di Difesa della Donna ai quali la introdusse Mirella Alloisio “Rossella”",https://www.noipartigiani.it/pestelli/,1051230168
Pompeo Mancarella,Lombardia,M,Busto Arsizio (VA),45.61198,8.85055,"Pompeo Mancarella Nato a Busto Arsizio (VA) il 24 giugno 1922, studente Nome di battaglia “Peo” Sottotenente, comandante di plotone 1ª Divisione Ossola “Mario Flaim”, Brigata “Cesare Battisti” L’intervista è stata realizza nel giugno 2008",https://www.noipartigiani.it/mancarella_pompeo/,1038893576
Vittoria Rocca,Piemonte,F,Torino,45.06775,7.68249,Vittoria Rocca Nata a Torino il 19 luglio 1925 Staffetta della formazione autonoma Sergio De Vitis che operava in Val Sangone Sottotenente Ha contribuito alla creazione dell’Ossario di Coazze dove sono raccolti i resti dei partigiani caduti soprattutto nel grande rastrellamento del maggio 1944. Il 16 maggio a Forno di Coazze vennero uccisi 28 partigiani catturati dai nazifascisti L’intervista è stata realizzata nel febbraio 2016 da Paola Calosso e Gian Carlo Scarrone,https://www.noipartigiani.it/rocca/,1051890712
Antonio Ruscelli,Emilia Romagna,M,Sorbano (FC),43.9189,12.14382,"Antonio Ruscelli Nato a Sorbano (FC) l’8 febbraio 1925, operaio Nome di battaglia “Fred” Ha fatto la Resistenza in Lombardia Battaglione Fabbri, Divisione Comoli, 52ª Brigata Garibaldi È stato deportato nel lager di Bolzano Nell’intervista fa riferimento all’insurrezione contro i tedeschi di Villadossola dell’8 neovembre 1943 L’intervista è stata realizzata da Paolo De Toni nel 2013",https://www.noipartigiani.it/ruscelli/,1045630535
Domenico Gibertini,Emilia Romagna,M,Guastalla (RE),44.92211,10.65416,"Domenico Gibertini Nato a Guastalla (RE) il 19 dicembre 1921, contadino Nome di battaglia “Feo” Distaccamento celere “Borghi”, 77ª Brigata “Fratelli Manfredi” Nell’intervista racconta della battaglia di Fosdondo avvenuta il 15 aprile 1945: 180 partigiani si scontrarono con 300 fascisti. Furono uccisi 5 partigiani e 2 civili, i fascisti morti furono una decina",https://www.noipartigiani.it/gibertini/,1051045116
Carla Bonora,Emilia Romagna,F,Ferrara,44.83448,11.61986,Carla Bonora Nata a Ferrara il 6 dicembre 1934 Racconta le angherie subite dai fascisti che ricercavano il padre disertore L’intervista è stata realizzata da Rita Bertoncini nel 2015,https://www.noipartigiani.it/bonora/,1050701703
Bruna Talluri,Toscana,F,Siena,43.31855,11.33214,"Bruna Talluri Nata a Siena il 12 giugno 1923, studentessa Ha fatto parte dell’organizzazione clandestina del Partito d’Azione con compiti di distribuzione della stampa clandestina, staffetta, appoggio logistico ai partigiani e agli antifascisti. Nel dopoguerra è stata un’insegnate, attivista e politica L’intervista è stata realizzata negli anni Novanta",https://www.noipartigiani.it/talluri-bruna/,1050702345
Alfredo Merlo,Toscana,M,Radicondoli (SI),43.26129,11.04353,"Alfredo Merlo Nato a Radicondoli (SI) il 25 maggio 1925 Nome di battaglia “Il biondo” 23ª Brigata Garibaldi “Guido Buscaglia” Ha raccontato la sua storia nel libro ” Avevo diciotto anni e mezza lira di speranza” scritto con Adriana Chiodi A intervistarlo nel 1993 è Vittorio Meoni, partigiano “Sosso”, allora presidente dell’Anpi provinciale di Siena",https://www.noipartigiani.it/merlo/,1049742657
Renato Puliani,Piemonte,M,Premosello-Chiovenda (VB),46.00287,8.3323,"Renato Puliani Nato a Premosello (VB) il 20 febbraio 1926 Nome di battaglia “Drugia” Brigata Valdossola Nell’intervista fa riferimento all’eccidio dell’Alpe Casarolo dove, il 22 giugno 1944, i tedeschi uccisero sei civili e quattro partigiani tra cui Adolfo Vigorelli, Medaglia d’Oro al valor militare L’intervista è stata realizzata da Nico Tordini nel giugno 2016",https://www.noipartigiani.it/puliani-2/,1046150752
Lilio Giannecchini,Toscana,M,Pescaglia (LU),43.96637,10.41243,"Lilio Giannecchini Nato a Pascoso (LU) il 21 giugno 1925, operaio Nome di battaglia “Toscano” Gap di Genova, Vicecomandante della 58 ª Brigata Garibaldi “Oreste”, Divisione Pinan Cichero Nel dopoguerra è stato per molti anni direttore dell’Istituto Storico della Resistenza di Lucca",https://www.noipartigiani.it/giannecchini/,1046150545
Pietro Spadacini,Piemonte,M,Verbania (VB),45.92243,8.55138,"Pietro Spadacini Nato a Suna (VB) il 18 febbraio 1922, operaio Nome di battaglia “Prussian” Brigata Valdossola L’intervista è stata realizzata da Paolo De Toni nel novembre 2011",https://www.noipartigiani.it/spadacini/,1046150923
Avio Pinotti,Emilia Romagna,M,San Martino in Rio (RE),44.73315,10.78183,"Avio Pinotti Nato a San Martino in Rio (RE) il 17 dicembre 1924, contadino Nome di battaglia “Athos” Distaccamento “Piccinini” 76ª Brigata Sap, Distaccamento celere “Borghi” Con Monica Barlettai ha scritto il libro “Il racconte del Ribelle”",https://www.noipartigiani.it/pinotti/,1049742265
Annibale Meraviglia,Lombardia,M,Castellanza (VA),45.61208,8.90382,"Annibale Meraviglia Nato a Castellanza (VA) il 2 ottobre 1922, contadino Patriota 125ª Brigata Fratelli Rosselli L’intervista è stata realizzata da Paolo De Toni nel marzo 2019",https://www.noipartigiani.it/meraviglia/,1049742419
Mario Gueraldi,Lombardia,M,Milano,45.46419,9.18963,"Mario Gueraldi Nato a Milano l’11 aprile 2023 Nome di battaglia “Nando” Brigata Valgrande Nell’intevista fa spesso riferimento a un altro partigiano, Luigi Fumagalli “Cinema” e usa l’espressione “Tugnitt” termine con cui in Lombardia venivano chiamati i tedeschi. L’intervista è stata realizzata da Paolo de Toni nel giugno 2016",https://www.noipartigiani.it/gueraldi/,1045630369
Edmea Maggiolo,Lombardia,F,Varese,45.81708,8.8247,"Edmea Maggiolo Nata a Varese il 21 giugno 1920, crocerossina Staffetta per la Brigata Cesare Battisti, battaglione Monte Marona. Guida per gli espatri in Svizzera Si trovava all’ospedale di Varese quando fu bombardato e gli scoppi l’hanno resa sorda L’intervista è stata realizzata da Nico Tordini nel novembre 2017 (con Ezio Bassani)",https://www.noipartigiani.it/bassani/,1045631019
Ezio Bassani,Lombardia,M,Arsago Seprio (VA),45.68417,8.73516,"Ezio Bassani Nato ad Arsago Seprio (VA) il 6 agosto 1924, studente 1ª Divisione Ossola “Mario Flaim”, Brigata Cesare Battisti L’intervista è stata realizzata da Nico Tordini nel novembre 2017 (con Edmea Maggiolo)",https://www.noipartigiani.it/bassani/,1045631019
Remo Luccarini,Toscana,M,Camporgiano (LU),44.15933,10.33405,"Remo Luccarini Nato a Camporgiano (LU) il 18 agosto 1923 IMI Internato Militare Italiano Catturato il 9 settembre 1943, venne deportato nel campo Stalag XII A a Limburg. Fu liberato dagli americani il 27 marzo 1945 La sua testimonianza è presente anche nel libro di Simonetta Simonetti e Andrea Giannasi “Tutti a casa-Storie e memorie di InterNati Militari Italiani di Lucca e provincia” L’intervista è stata realizzata nel gennaio 2019",https://www.noipartigiani.it/luccarini/,1046150652
Giuseppe Sericano,Piemonte,M,Serravalle Scrivia (AL),44.72251,8.85966,"Giuseppe Sericano Nato a Serravalle Scrivia il 29 settembre 1929, contadino Nome di battaglia “Brescia” Dopo l’8 settembre sale in montagna e fa parte della Brigata Autonoma Militare guidata dal capitano Giancarlo Odino Catturato nel rastrellamento della Benedicta, l’8 aprile 1944, qui racconta la deportazione nel lager di Mauthausen",https://www.noipartigiani.it/sericano/,1046330832
Liliana Millu,Toscana,F,Pisa,43.71593,10.40186,"Liana Millu Nata a Pisa il 21 dicembre 1914, insegnante e giornalista Ha partecipato alla Resistenza a Genova nel gruppo clandestino “Otto” Arrestata nel 1944 fu deportata a Auschwitz-Birkenau Ha pubblicato alcuni libri sulla sua esperienza, il primo del 1947 è “Il fumo di Birkenau” L’intervista è stata realizzata negli anni Novanta",https://www.noipartigiani.it/millu/,1048884809
Liliana Del Monte,Emilia Romagna,F,Reggio Emilia,44.69824,10.63125,"Liliana Del Monte Nata a Reggio Emilia il 29 aprile 1933 Racconta l’eccidio della Bettola, Vezzano sul Crostolo (RE) del 24 giugno 1944. Per rappresaglia a un’azione partigiana, i tedeschi uccisero 32 civili. Tra loro anche la madre di Liliana, Marianna Del Monte e i nonni Ligorio e Felicita Prandi. Liliana, ferita da tre pallottole, riesce a salvarsi gettandosi da una finestra. Sulla sua storia Liliana ha scritto il libro “Il nazista e la bambina” L’intervista è stata realizzata nel 2019",https://www.noipartigiani.it/delmonte/,1038256340
Luigi Balesini,Lombardia,M,Montichiari (BS),45.41258,10.39512,"Luigi Balesini Nato a Montichiari (BS) il 12 agosto 1928, panettiere Nome di battaglia “Pippo” Ha svolto attività di staffetta nel bresciano L’intervista è stata realizzata da Paolo De toni nel febbraio 2017",https://www.noipartigiani.it/balesini/,1023355080
Nerio Cocchi,Emilia Romagna,M,Anzola dell'Emilia (BO),44.54714,11.19655,"Nerio Cocchi Nato a Anzola dell’Emilia (BO) il 20 giugno 2022, sarto Nome di battaglia “Viola” 7ª Brigata Gap “Gianni Garibaldi”, 63ª Brigata Bolero Ha partecipato alla battaglia di Porta Lame a Bologna il 7 novembre 1944 L’intervista è stata realizzata nel marzo 2002",https://www.noipartigiani.it/cocchi/,1023355349
Ferdinando Legnani,Lombardia,M,Legnano (MI),45.596,8.91924,"Ferdinando Legnani Nato a Legnano nel 1925, operaio Fronte della Gioventù Ha partecipato agli scioperi del marzo 1943 È salito in montagna nella zona di Cairo Montenotte, nel savonese L’intervista è stata realizzata nell’aprile 2009 (in collaborazione con la fidanzata Iole Morlacchi)",https://www.noipartigiani.it/legnani/,1023356061
Iole Morlacchi,Lombardia,F,Legnano (MI),45.596,8.91924,"Iole Morlacchi Nata a Legnano nel 1927, operaia Staffetta Ha svolto la sua attività clandestina in collaborazione con il fidanzato Ferdinando (Intervista dell'aprile 2009)",https://www.noipartigiani.it/legnani/,1023356061
Giovanni Battista Canepa,Liguria,M,Chiavari (GE),44.31688,9.32439,"Giovanni Battista Canepa Nato a Chiavari (GE) il 18 luglio 1896, giornalista Nome di battaglia “Marzo” Medaglia di Bronzo al Valor Militare nella Prima Guerra Mondiale Più volte arrestato e inviato al confino, riesce a riparare in Francia Partecipa alla Guerra di Spagna del 1936 nelle Brigate Internazionali (scambiato inizialmente per una spia viene incarcerato) e viene ferito nella battaglia di Guadalajara il 12 marzo 1937 Tornato in Italia diventa commissario politico della Divisione “Pinan Cichero”",Non trovato nel Foglio3,#N/A
Pietro Satta,Emilia Romagna,M,Chiaramonti (SS),40.75168,8.81938,"Pietro Satta Nato a Chiaramonti (SS) il 31 gennaio 1924 1ª Divisione Piacenza Giustizia e Libertà Di origini sarde, ha svolto l’attività di addetto alle comunicazioni nella brigata del comandante Fausto Cossu, nel piacentino",https://www.noipartigiani.it/satta_k/,1023356740
Giuseppe Crotti,Lombardia,M,Bonate Sotto (BG),45.66914,9.55998,Giuseppe Crotti Nato a Bonate Sotto (BG) il 10 aprile 1924 Patrioti di Bonate in collegamento con la 171ª Brigata Sap Garibaldi L’intervista è stata realizzata nel settembre 2024,https://www.noipartigiani.it/crotti/,1029306334
Rinaldo Paganini,Emilia Romagna,M,Ponte dell'Olio (PC),44.86603,9.64366,"Rinaldo Paganini Nato a Ponte dell’Olio (PC) il 21 aprile 1923 Nome di battaglia “Moro” Brigata Val Nure Nell’intervista fa riferimento alla morte di Piero Bessone e Renato Ghittoni, partigiani della 59ª Brigata Garibaldi “Caio”, uccisi dai fascisti il 9 luglio 1944 L’intervista è stata realizzata nel settembre 2022",https://www.noipartigiani.it/paganini/,1026473440
Giovanni Mignocchi,Piemonte,M,Crevoladossola (VB),46.14713,8.29658,"Giovanni Mignocchi Nato a Crevalodossola (VB) il 3 ottobre 1925, impiegato Nome di battaglia “Nino” Divisione autonoma Val Toce, Divisione Valdossola L’intervista è stata realizzata da Paolo De Toni nel novembre 2016",https://www.noipartigiani.it/mignocchi/,1026586032
Giovanni Agosti,Liguria,M,Genova,44.40726,8.93386,"Giovanni Agosti Nato a Genova il 19 agosto 1923, operaio Catturato nella retata del 16 giugno 1944 viene deportato a Mauthausen L’intervista è stata realizzata nel settembre del 2006",https://www.noipartigiani.it/agosti/,1020143877
Gino Cademartori,Liguria,M,Chiavari (GE),44.31688,9.32439,"Gino Cademartori Nato a Chiavari (GE) il 21 febbraio 1931 Da ragazzo ha conosciuto Giovanni Sanguineti “Bocci” che, con Eraldo Fico “Virgola”, creò il gruppo dei Ribelli del Capenardo da cui nacque poi la Brigata Garibaldi Coduri, Divisione Cichero L’intervista è stata realizzata nel novembre 2024",https://www.noipartigiani.it/cademartori/,1031185767
Fulvio Cerofolini,Liguria,M,Genova,44.40726,8.93386,"Fulvio Cerofolini Nato a Genova il 5 dicembre 1928 Racconta del fratello Angelo, classe 1915, arruolato nella Battaglione Cesare Battisti della Brigata garibaldina “Ateo Garemi”, caduto il 2 maggio 1945 (nell’intervista per errore viene indicato il 2 aprile) Fulvio sarà poi per dieci anni sindaco socialista di Genova L’intervista è stata realizzata nel novembre 2008",https://www.noipartigiani.it/cerofolini/,1023355230
Guido Cava,Liguria,M,La Spezia,44.10427,9.82319,Guido Cava Nato a La Spezia il 13 marzo 1930 Racconta l’abbandono della scuola per le leggi razziali del 1938 e la vita di una famiglia ebraica sotto il fascismo È stato presidente della Comunità ebraica di Pisa La sua storia è raccontata anche nella fiction Rai “Figli del destino” L’intervista è stata realizzata nell’ottobre 2019,https://www.noipartigiani.it/cava/,1023355175
Guelfo Del Rio,Liguria,M,Arcola (SP),44.11361,9.90564,"Guelfo Del Rio Nato ad Arcola (SP) nel 1927, operaio Ha partecipato allo sciopero del marzo 1944 della fabbrica Oto Melara di Spezia poi è salito in montagna Brigata Vanni, comandante Mario Fontana L’intervista è stata realizzata nel luglio 2007",https://www.noipartigiani.it/del-rio/,1023355428
Leonildo Fumagalli,Lombardia,M,Gavirate (VA),45.84274,8.71714,"Nato a Gavirate (VA) il 7 gennaio 1919. Formazione Cocchio, Gruppo Trevisago. Arrestato nel gennaio 1944, a giugno fu deportato a Mauthausen. L’intervista è stata realizzata da Paolo De Toni e Nico Tordini nel 2016.",https://www.noipartigiani.it/fumagalli-2/,1023355635
Carlo Ganni,Piemonte,M,Pralungo (VC),45.59013,8.05389,"Nato a Pralungo (VC) il 7 novembre 1929, operaio meccanico. Nome di battaglia “Gagno”, 75ª Brigata Garibaldi. Aveva solo 14 anni quando nel maggio 1944 fu arrestato dai fascisti e detenuto per 31 giorni: liberato, raggiunse i partigiani in montagna. Ha raccontato la sua storia nel libro “Cara libertà”. L’intervista è stata realizzata nel febbraio 2019 da Rolando Magliola e Piergiorgio Clerici.",https://www.noipartigiani.it/ganni/,1023355691
Mario Giacomelli,Liguria,M,Castelnuovo Magra (SP),44.09703,10.01633,"Nato a Castelnuovo Magra (SP) il 2 marzo 1924. Nome di battaglia “Ludovico”, Brigata Ugo Muccini. L’intervista è stata realizzata nel luglio 2007.",https://www.noipartigiani.it/giacomelli/,1023355894
Gian Matteo Oddone,Liguria,M,Calizzano (SV),44.23555,8.11354,"Nato a Calizzano (SV) l’1 gennaio 1926. Nome di battaglia “Lince”, Brigata “Gin Bevilacqua”. L’intervista è stata realizzata da Lab Buster Keaton nel 2015.",https://www.noipartigiani.it/oddone-2/,805503347
Francesco Panizzi,Liguria,M,Genova,44.40726,8.93386,"Nato a Genova l’1 marzo 1926, operaio. Nome di battaglia “Racchetta”, Sap, Comandante della “Brigata Sordi” di Sestri Ponente che operava nelle fabbriche. L’intervista è stata realizzata nel settembre 2006.",https://www.noipartigiani.it/panizzi/,1023356321
Vilma Pizzin,Friuli Venezia Giulia,F,Pasiano di Pordenone (PN),45.84534,12.63009,"Nata a Pasiano di Pordenone (PN) nel 1926. Staffetta. Il marito Salvatore Biasotto “Alano” militava nella Brigata “Veneziano”, Divisione Garibaldi “Modotti”. L’intervista è stata realizzata nel 2015.",https://www.noipartigiani.it/pizzin/,1023356566
Dumas Remoli,Toscana,M,Pistoia,43.93175,10.91694,"Nato a Pistoia il 30 agosto 1927. Svolse attività clandestina in città prima di arruolarsi come volontario nel Nuovo Esercito Italiano, Divisione Cremona. Ha partecipato alla liberazione di Alfonsine. L’intervista è stata realizzata nel marzo 2020.",https://www.noipartigiani.it/remoli/,1023356599
Giuseppe Ricci,Piemonte,M,Cassine (AL),44.75052,8.52843,"Nato a Cassine (AL) l’8 dicembre 1924, ferroviere. Nome di battaglia “Eros”, 9ª Divisione Garibaldi. L’intervista è stata realizzata nel luglio 2020.",https://www.noipartigiani.it/ricci/,1023356682
Zenech Marani,Emilia-Romagna,F,Correggio (RE),44.77121,10.78082,"Nata a Correggio (RE) il 12 gennaio 1924, operaia. Nome di battaglia “Katia”. Ha partecipato alla Resistenza in Liguria come staffetta per la Brigata “Ugo Muccini”. L’intervista è stata realizzata nel luglio 2007.",https://www.noipartigiani.it/zenech/,1023356868
Angiolino Vecchi,Emilia-Romagna,M,Reggio Emilia,44.69824,10.63125,"Nato a Reggio Emilia il 13 settembre 1942. Racconta la storia della sua famiglia: gli zii Giuseppe e Gino furono uccisi dai fascisti perché offrivano protezione ai partigiani. L’altro zio, Giovanni, partigiano, morì in un combattimento in montagna. Il padre di Angiolino, Onesto, non è mai tornato dalla campagna di Russia.",https://www.noipartigiani.it/angiolino-vecchi-testimone/,1023356823
Ezio Tassone,Piemonte,M,Cuneo,44.38955,7.54786,"Nato a Cuneo il 9 ottobre 1929, studente. Nome di battaglia “Pisellino”. Staffetta Servizio X, Divisone Autonoma Rinnovamento comandata da Piero Cosa. L’intervista è stata realizzata nel settembre 2024 da Giulia Arduino.",https://www.noipartigiani.it/tassone/,1020608725
Agostino Frabetti,Emilia-Romagna,M,Argelato (BO),44.64165,11.34863,"Nato ad Argelato (BO) il 4 febbraio 1928, studente. Ha partecipato alla Resistenza aiutando il padre Oreste, dirigente del partito comunista clandestino, e la madre Arveda Rambaldi. Oreste sarà catturato in seguito a una spiata e ucciso dai fascisti il 25 gennaio 1945. All’intervista partecipa Tiziano Frabetti, fratello di Agostino, nato nel 1940. L’intervista è stata realizzata nel novembre 2019.",https://www.noipartigiani.it/frabetti/,1020512014
Roberto Kasman,Piemonte,M,Torino,45.06775,7.68249,"Nato a Torino il 14 settembre 1928. Trasferitosi con la famiglia a Genova e poi a Chiavari, fu involontario protagonista di un avvelenamento ai danni di alcuni soldati tedeschi. A salvarlo fu il fratello Sergio, nome di battaglia “Marco”, che Ferruccio Parri nominò Capo di stato maggiore del Comando piazza di Milano per Giustizia e Libertà. Sergio Kasman, nato il 2 settembre 1920, fu ucciso a Milano in seguito a una delazione il 9 dicembre 1944. È Medaglia d’oro al Valor Militare. L’intervista è stata realizzata nell’ottobre 2024.",https://www.noipartigiani.it/kasman/,1019755702
Giulia Galleni,Toscana,F,Carrara,44.07727,10.09848,"Nata a Carrara il 14 agosto 1929, studentessa. Ha partecipato alla rivolta delle donne che, il 7 luglio 1944, impedirono l’evacuazione della città ordinata dai tedeschi. L’intervista è stata realizzata nell’aprile 2023 da Anna Galleni, Giuseppe e Chiara Bruschi.",https://www.noipartigiani.it/galleni/,1018595091
Alberina Bertogna,Friuli Venezia Giulia,F,Aquileia (UD),45.76957,13.36511,"Nata ad Aquileia (UD) il 10 luglio 1926. Nome di battaglia “Sasha”. Combattente e Staffetta Brigata Proletaria. Deportata in Germania. Nei giorni della Liberazione ha incontrato il futuro marito, Girolamo Stallone, Internato Militare. L’intervista è stata realizzata nel luglio 2024.",https://www.noipartigiani.it/bertogna/,1012735042
Maria Airaudo,Piemonte,F,Bagnolo Piemonte,44.76014,7.31175,"Nata a Bagnolo Piemonte il 18 ottobre 1924, operaia. Nome di battaglia “Mary”, 105 ª Brigata Garibaldi. Il 26 marzo 1945 è stata ferita ai polmoni dai fascisti che inseguivano dei partigiani che lei era andata ad avvisare. L’intervista è stata realizzata nel settembre 2024 da Giulia Arduino.",https://www.noipartigiani.it/airaudo/,1014811480
Albano Castellan,Friuli Venezia Giulia,M,Spilimbergo (PN),46.11181,12.90264,"Nato a Spilimbergo (PN) il 25 agosto 1923. Internato Militare Italiano, Battaglione Tolmezzo, 8 º Reggimento Alpini. Dopo l’8 settembre venne deportato in Polonia. L’intervista è stata realizzata nel giugno 2023 da Diego Compagnoni e Gianna Malisani.",https://www.noipartigiani.it/castellan/,1012361247
Manlio Simonato,Friuli Venezia Giulia,M,Morsano al Tagliamento,45.85906,12.92762,"Nato a Morsano al Tagliamento (PN) il 12 ottobre 1925, contadino. All’anagrafe risulta come Moglio, per un errore di trascrizione. Nome di battaglia “Fortezza”, “Ascaro”, Brigata “Ippolito Nievo”. Nell’intervista cita Pierpaolo Pasolini che ha conosciuto quando era ricoverato in ospedale per la tubercolosi. L’intervista è stata realizzata nel settembre 2024.",https://www.noipartigiani.it/simonato/,1010927137
Carla Argenton,Friuli Venezia Giulia,F,Cividale del Friuli,46.07341,13.43126,"Nata a Cividale del Friuli (UD) il 27 giugno 1935. Testimonia la storia del padre Mario Argenton, Ufficiale del Reggimento di Artiglieria a cavallo “Voloire”, componente del Comando Generale del Corpo Volontari della Libertà per il Partito Liberale Italiano e gli Autonomi, figura eminente della Resistenza. Argenton, decorato con Medaglia d’Argento, Croce di guerra e Bronze Star, è ritratto nella celebre foto della sfilata dei partigiani a Milano il 6 maggio 1945 con Mattei, Parri, Longo, Stucchi e Cadorna. L’intervista è stata realizzata nel gennaio 2020.",https://www.noipartigiani.it/argenton/,1010900222
Felice Tirone,Piemonte,M,Calliano (AT),45.00223,8.257,"Nato a Calliano (AT) l’1 luglio 1924. Nome di battaglia “Triso”, 9ª Brigata Matteotti. La sua storia è raccontata nel libro “Io c’ero” di Laura Nosenzo e Loredana Dova. L’intervista è stata realizzata nel luglio 2024.",https://www.noipartigiani.it/tirone_felice/,1009894541
Luciano Gatti,Toscana,M,Carrara,44.07727,10.09848,Nato a Carrara il 22 giugno 1932. Staffetta per la formazione “Giuseppe Ulivi”. Riconosciuto partigiano combattente. Nell’intervista fa riferimento ai fatti del 7 luglio 1944 quando le donne di Carrara si ribellarono all’ordine di evacuare la città arrivato dal comando tedesco. L’intervista è stata realizzata nel settembre 2024.,https://www.noipartigiani.it/gatti/,1009810539
Gino Bonfiglioli,Emilia-Romagna,M,Bazzano (BO),44.50284,11.08507,"Nato a Bazzano (BO) il 29 giugno 1926, operaio. Nome di battaglia “Biondo”. Ha svolto attività in collaborazione con un gruppo di antifascisti, le sorelle Anita e Olga sono state staffette. L’intervista è stata realizzata nell’agosto 2024.",https://www.noipartigiani.it/bonfiglioli-2/,1009772587
Enrica Canepa,Lazio/Lombardia,F,Ponza (LT),40.89679,12.96425,"Nata a Ponza (LT) il 23 ottobre 1931. È figlia di Giovanni Battista Canepa “Marzo”, combattente nella guerra di Spagna e commissario della brigata Pinan Cichero. Anche la madre Maria Vitiello è stata in montagna nel periodo della Resistenza. Nell’intervista fa riferimento alla morte del partigiano Raimondo Saverino “Severino”, ucciso il 21 maggio 1944. L’intervista è stata realizzata nel giugno 2024.",https://www.noipartigiani.it/canepa-2/,986513854
Pinuccia Galimberti,Lombardia,F,Desio (MB),45.61869,9.2081,Nata a Desio (MB) il 19 settembre 1932. Racconta il giorno in cui trovò nel bosco un partigiano ucciso e quello in cui il padre la portò a vedere i corpi di Mussolini e dei gerarchi a Piazzale Loreto. L’intervista è stata realizzata a giugno 2024.,https://www.noipartigiani.it/galimberti_pinuccia/,977742501
Ivo Teglia,Basilicata/Toscana,M,Buggiano (PT),43.89139,10.73356,"Nato a Buggiano (PT) il 9 gennaio 1927, contadino. Staffetta, poi in una formazione locale che contribuì a liberare la Valdinievole. Volontario nel Nuovo Esercito Italiano, Divisione Cremona, partecipò alla liberazione di Alfonsine. Sulla sua storia Irene Giacomelli ha scritto il libro “Il Partigiano e la marmellata”. L’intervista è stata realizzata nel 2020.",https://www.noipartigiani.it/teglia/,951169226
Elio Ferrari,Liguria,M,Ronco Scrivia (GE),44.62104,8.95459,"Nato a Ronco Scrivia (GE) il 24 gennaio 1923, tornitore. Nome di battaglia “Barba”, Divisione Mingo, Brigata Pio. L’intervista è stata realizzata a maggio 2024.",https://www.noipartigiani.it/ferrari_elio/,956394620
Teresa De Luca,Veneto,F,Vittorio Veneto (TV),45.98188,12.29656,"Nata a Vittorio Veneto (TV) il 30 giugno 1925, sarta. Nome di battaglia “Vera”. Ha svolto attività di supporto alla Brigata “Tollot”, Divisione Nino Nanetti. Nell’intervista fa riferimento alla morte di Armando Grava, “Rosa”, ucciso il 17 marzo 1945 dopo giorni di sevizie. L’intervista è stata realizzata a maggio 2024.",https://www.noipartigiani.it/de-luca/,953879892
Carlo Marchina,Piemonte,M,Pray (BI),45.67664,8.21204,"Nato a Piancieri Alto, Pray, (BI) il 27 luglio 1927. Nome di battaglia “Rolle”, 109ª Brigata Garibaldi. L’intervista è stata realizzata nel maggio 2024.",https://www.noipartigiani.it/marchina/,953067097
Giorgio Belli,Piemonte,M,Andorno Micca (BI),45.61058,8.0537,"Nato a Colma di Andorno (VC) il 26 dicembre 1926. Nome di battaglia “Audace”. 2ª Brigata Garibaldi, Distaccamento “Svizzero”. Ha preso il nome di battaglia del fratello Luciano, morto il 17 maggio 1944 nell’eccidio di Mottalciata in cui furono uccisi 17 partigiani. L’intervista è stata realizzata a maggio 2024.",https://www.noipartigiani.it/belli/,953197582
Angela Da Pont,Veneto,F,Mel (BL),46.06203,12.07923,"Nata a Mel (BL) il 9 novembre 1927, contadina. Ha svolto attività di supporto alla Brigata Mazzini, Divisione Nino Nanetti, dove era partigiano il marito Ferruccio Dal Toè “Bosco”, comandante di distaccamento. Nell’intervista fa riferimento al partigiano Fernando Boccaccini “Toscanino”, ucciso con altri dieci compagni a Sant’Antonio di Tortal il 10 marzo 1945. L’intervista è stata realizzata ad aprile 2024.",https://www.noipartigiani.it/da-pont/,951190310
Alfredo Enrichi,Toscana,M,Londa (FI),43.86016,11.56778,"Nato a Londa (FI) il 29 giugno 1923. Nome di battaglia “Nicche”. Militare negli “Arditi” dell’Esercito, 22ª Brigata “Vittorio Sinigaglia”. L’intervista è stata realizzata nel 2015 da Stefano Ballini.",https://www.noipartigiani.it/enrichi/,932503337
Primo Tortelli,Toscana,M,Prato,43.88056,11.09695,"Nato a Prato nel 1922, operaio. Brigata “Buricchi”. Con Luana Cecchi ha scritto il libro “Da invasore a partigiano”.",https://www.noipartigiani.it/tortelli/,920531287
Quartiero Ronchi,Emilia-Romagna,M,Casalfiumanese,44.30058,11.6234,"Nato a Casalfluminense (BO) il 12 aprile 1924. Nome di battaglia “Delo”, Sap. Croce di Guerra.",https://www.noipartigiani.it/ronchi/,923783918
Stefano Tondetta,Piemonte,M,Viganella (VB),46.05267,8.19391,"Nato a Viganella (NO) il 26 dicembre 1927. Nome di battaglia “Spedi”. Gruppo autonomo Fabbri (poi 83ª Brigata Garibaldi), IIª Divisione Redi. L’intervista è stata realizzata nel 2015 da Paolo De Toni.",https://www.noipartigiani.it/tondetta/,889975479
Pietro Gnecchi,Emilia-Romagna,M,Bedonia (PR),44.50242,9.63102,"Nato a Bedonia (PR), il 24 novembre 1925. Nome di battaglia “Garibaldi”. Distaccamento Picelli, 32ª Brigata Garibaldi, Sottotenente. È uno protagonisti della Battaglia del Lago Santo, sull’Appenino Tosco Emiliano: tra il 18 e il 19 marzo 1944, nove partigiani resistettero per venti ore, asserragliati in una baita, all’assalto di più di un centinaio di uomini tra fascisti e tedeschi. I partigiani si salvarono tutti, tra gli assalitori si contarono 16 morti e 36 feriti. L’intervista è stata realizzata nel 2015.",https://www.noipartigiani.it/gnecchi/,925498539
